[{"ident":"AR-0049","type":"small_airport","name":"Arroyito/Arcor Airport","latitude_deg":-31.4221992493,"longitude_deg":-63.0041999817,"elevation_ft":485,"country":"Argentina","region":"Córdoba Province","municipality":"Arroyito/Arcor","iata_code":null,"icao_code":null,"gps_code":null},
{"ident":"AR-0050","type":"heliport","name":"Austral Heliport","latitude_deg":-52.8936,"longitude_deg":-68.3553,"elevation_ft":127,"country":"Argentina","region":"Tierra del Fuego Province","municipality":"Rio Cullen","iata_code":null,"icao_code":null,"gps_code":null},
{"ident":"AR-0051","type":"heliport","name":"Buenos Aires City Oscar and Juan Gálvez Autodrome Heliport","latitude_deg":-34.693929,"longitude_deg":-58.460403,"elevation_ft":16,"country":"Argentina","region":"Buenos Aires (Autonomous City)","municipality":"Buenos Aires","iata_code":null,"icao_code":null,"gps_code":null},
{"ident":"AR-0052","type":"small_airport","name":"Presidente Avellaneda Airport","latitude_deg":-29.1061,"longitude_deg":-59.6569,"elevation_ft":147,"country":"Argentina","region":"Santa Fe Province","municipality":"Avellaneda","iata_code":null,"icao_code":null,"gps_code":null},
{"ident":"AR-0053","type":"small_airport","name":"Ayacucho Airport","latitude_deg":-37.1639,"longitude_deg":-58.4719,"elevation_ft":221,"country":"Argentina","region":"Buenos Aires Province","municipality":"Ayacucho","iata_code":null,"icao_code":null,"gps_code":"SA58"},
{"ident":"AR-0054","type":"heliport","name":"Ayres De Pilar Heliport","latitude_deg":-34.4375,"longitude_deg":-58.7983,"elevation_ft":45,"country":"Argentina","region":"Buenos Aires Province","municipality":"Pilar","iata_code":null,"icao_code":null,"gps_code":null},
{"ident":"AR-0055","type":"heliport","name":"Azcarate Irastorza Heliport","latitude_deg":-35.1994,"longitude_deg":-63.6008,"elevation_ft":416,"country":"Argentina","region":"La Pampa Province","municipality":"Intendente Alvear","iata_code":null,"icao_code":null,"gps_code":null},
{"ident":"AR-0056","type":"small_airport","name":"B&B Servicios Agropecuarios Airport","latitude_deg":-32.1147,"longitude_deg":-61.6328,"elevation_ft":239,"country":"Argentina","region":"Santa Fe Province","municipality":"Cañada Rosquin","iata_code":null,"icao_code":null,"gps_code":null},
{"ident":"AR-0057","type":"heliport","name":"B. Churruca Heliport","latitude_deg":-34.6407,"longitude_deg":-58.4094,"elevation_ft":19,"country":"Argentina","region":"Buenos Aires (Autonomous City)","municipality":"Buenos Aires","iata_code":null,"icao_code":null,"gps_code":null},
{"ident":"AR-0058","type":"small_airport","name":"Baradero Airport","latitude_deg":-33.821693,"longitude_deg":-59.492806,"elevation_ft":95,"country":"Argentina","region":"Buenos Aires Province","municipality":"Baradero","iata_code":null,"icao_code":null,"gps_code":"SA2R"},
{"ident":"AR-0059","type":"small_airport","name":"Barrancas Airport","latitude_deg":-36.7756004333,"longitude_deg":-69.8593978882,"elevation_ft":3481,"country":"Argentina","region":"Mendoza Province","municipality":"Barrancas","iata_code":null,"icao_code":null,"gps_code":null},
{"ident":"AR-0060","type":"small_airport","name":"Basavilbaso Airport","latitude_deg":-32.3611,"longitude_deg":-58.8808,"elevation_ft":196,"country":"Argentina","region":"Entre Ríos Province","municipality":"Basavilbaso","iata_code":null,"icao_code":null,"gps_code":null},
{"ident":"AR-0061","type":"small_airport","name":"Batan Airport","latitude_deg":-38.0117,"longitude_deg":-57.6775,"elevation_ft":203,"country":"Argentina","region":"Buenos Aires Province","municipality":"Mar Del Plata","iata_code":null,"icao_code":null,"gps_code":"SA4H"},
{"ident":"AR-0062","type":"small_airport","name":"Escobar Aeroclub","latitude_deg":-34.2986,"longitude_deg":-58.7989,"elevation_ft":13,"country":"Argentina","region":"Buenos Aires Province","municipality":"Belén de Escobar","iata_code":null,"icao_code":null,"gps_code":null},
{"ident":"AR-0063","type":"small_airport","name":"Bellamar Airport","latitude_deg":-38.3858,"longitude_deg":-58.1336,"elevation_ft":42,"country":"Argentina","region":"Buenos Aires Province","municipality":"Miramar","iata_code":null,"icao_code":null,"gps_code":null},
{"ident":"AR-0064","type":"closed","name":"Benavidez Airport","latitude_deg":-34.388054,"longitude_deg":-58.663887,"elevation_ft":13,"country":"Argentina","region":"Buenos Aires Province","municipality":"Benavidez","iata_code":null,"icao_code":null,"gps_code":null},
{"ident":"AR-0065","type":"small_airport","name":"Blondi Airport","latitude_deg":-34.61333465576172,"longitude_deg":-61.02305603027344,"elevation_ft":262,"country":"Argentina","region":"Buenos Aires Province","municipality":"Junin","iata_code":null,"icao_code":null,"gps_code":null},
{"ident":"AR-0066","type":"small_airport","name":"Gran Ancona Airport","latitude_deg":-33.4383,"longitude_deg":-61.3017,"elevation_ft":318,"country":"Argentina","region":"Santa Fe Province","municipality":"Bombal","iata_code":null,"icao_code":null,"gps_code":null},
{"ident":"AR-0067","type":"small_airport","name":"Bonetti Airport","latitude_deg":-27.604166030900004,"longitude_deg":-55.863887786899994,"elevation_ft":462,"country":"Argentina","region":"Misiones Province","municipality":"Posadas","iata_code":null,"icao_code":null,"gps_code":null},
{"ident":"AR-0068","type":"small_airport","name":"Pablo Sierra Aeroaplicaciones Airport","latitude_deg":-30.9294,"longitude_deg":-62.0506,"elevation_ft":328,"country":"Argentina","region":"Córdoba Province","municipality":"Brinkman","iata_code":null,"icao_code":null,"gps_code":null},
{"ident":"AR-0069","type":"heliport","name":"Cabaña San Isidro Labrador Heliport","latitude_deg":-34.3783,"longitude_deg":-58.7883,"elevation_ft":39,"country":"Argentina","region":"Buenos Aires Province","municipality":"Belén De Escobar","iata_code":null,"icao_code":null,"gps_code":null},
{"ident":"AR-0070","type":"closed","name":"Cabañas Airport","latitude_deg":-32.978152,"longitude_deg":-58.522496,"elevation_ft":23,"country":"Argentina","region":"Entre Ríos Province","municipality":"Gualeguaychu","iata_code":null,"icao_code":null,"gps_code":null},
{"ident":"AR-0071","type":"small_airport","name":"Cabildo Airport","latitude_deg":-38.4986000061,"longitude_deg":-61.8843994141,"elevation_ft":521,"country":"Argentina","region":"Buenos Aires Province","municipality":"Cabildo","iata_code":null,"icao_code":null,"gps_code":null},
{"ident":"AR-0072","type":"heliport","name":"Ituzaingo / Transener S.A. Heliport","latitude_deg":-27.5601,"longitude_deg":-56.6568,"elevation_ft":233,"country":"Argentina","region":"Corrientes Province","municipality":"Ituzaingo","iata_code":null,"icao_code":null,"gps_code":null},
{"ident":"AR-0073","type":"heliport","name":"Cabo Vírgenes Heliport","latitude_deg":-52.3278,"longitude_deg":-68.4092,"elevation_ft":180,"country":"Argentina","region":"Santa Cruz Province","municipality":"Cabo Vírgenes","iata_code":null,"icao_code":null,"gps_code":null},
{"ident":"AR-0074","type":"small_airport","name":"Estancia Caleufu Airport","latitude_deg":-40.393661,"longitude_deg":-70.963821,"elevation_ft":2323,"country":"Argentina","region":"Neuquén Province","municipality":"Lácar","iata_code":null,"icao_code":null,"gps_code":null},
{"ident":"AR-0075","type":"heliport","name":"Campo De Vuelo Heliport","latitude_deg":-31.3689,"longitude_deg":-64.2636,"elevation_ft":1515,"country":"Argentina","region":"Córdoba Province","municipality":"Cordoba","iata_code":null,"icao_code":null,"gps_code":null},
{"ident":"AR-0076","type":"small_airport","name":"Canals Airport","latitude_deg":-33.5622,"longitude_deg":-62.8692,"elevation_ft":387,"country":"Argentina","region":"Córdoba Province","municipality":"Canals","iata_code":null,"icao_code":null,"gps_code":null},
{"ident":"AR-0077","type":"small_airport","name":"Cañada de Gomez Airport","latitude_deg":-32.808687,"longitude_deg":-61.36574,"elevation_ft":268,"country":"Argentina","region":"Santa Fe Province","municipality":"Cañada de Gomez","iata_code":null,"icao_code":null,"gps_code":null},
{"ident":"AR-0078","type":"small_airport","name":"Cañada Rosquin Airport","latitude_deg":-32.0994,"longitude_deg":-61.5839,"elevation_ft":219,"country":"Argentina","region":"Santa Fe Province","municipality":"Cañada Rosquin","iata_code":null,"icao_code":null,"gps_code":null},
{"ident":"AR-0079","type":"small_airport","name":"Cañuelas Airport","latitude_deg":-35.1119,"longitude_deg":-58.7261,"elevation_ft":98,"country":"Argentina","region":"Buenos Aires Province","municipality":"Cañuelas","iata_code":null,"icao_code":null,"gps_code":null},
{"ident":"AR-0080","type":"small_airport","name":"Aeroclub Capitan Sarmiento","latitude_deg":-34.1639,"longitude_deg":-59.7311,"elevation_ft":160,"country":"Argentina","region":"Buenos Aires Province","municipality":"Capitan Sarmiento","iata_code":null,"icao_code":null,"gps_code":null},
{"ident":"AR-0081","type":"small_airport","name":"Vedia Aeroclub","latitude_deg":-34.4817,"longitude_deg":-61.4903,"elevation_ft":291,"country":"Argentina","region":"Buenos Aires Province","municipality":"Vedia","iata_code":null,"icao_code":null,"gps_code":null},
{"ident":"AR-0082","type":"small_airport","name":"Carhue Airport","latitude_deg":-37.1942,"longitude_deg":-62.7814,"elevation_ft":360,"country":"Argentina","region":"Buenos Aires Province","municipality":"Carhue","iata_code":null,"icao_code":null,"gps_code":null},
{"ident":"AR-0083","type":"small_airport","name":"Carlos Casares Airport","latitude_deg":-35.629284,"longitude_deg":-61.393885,"elevation_ft":275,"country":"Argentina","region":"Buenos Aires Province","municipality":"Carlos Casares","iata_code":null,"icao_code":null,"gps_code":null},
{"ident":"AR-0084","type":"small_airport","name":"Las Ensenadas Airport","latitude_deg":-31.4552993774,"longitude_deg":-64.5263977051,"elevation_ft":2394,"country":"Argentina","region":"Córdoba Province","municipality":"Carlos Paz","iata_code":null,"icao_code":null,"gps_code":null},
{"ident":"AR-0085","type":"small_airport","name":"Carlos Tejedor Airport","latitude_deg":-35.4256,"longitude_deg":-62.4697,"elevation_ft":308,"country":"Argentina","region":"Buenos Aires Province","municipality":"Carlos Tejedor","iata_code":null,"icao_code":null,"gps_code":null},
{"ident":"AR-0086","type":"small_airport","name":"Carmen de Areco Airport","latitude_deg":-34.4175,"longitude_deg":-59.8719,"elevation_ft":160,"country":"Argentina","region":"Buenos Aires Province","municipality":"Carmen de Areco","iata_code":null,"icao_code":null,"gps_code":null},
{"ident":"AR-0087","type":"heliport","name":"Casa De Gobierno Heliport","latitude_deg":-31.4306,"longitude_deg":-64.1842,"elevation_ft":1420,"country":"Argentina","region":"Córdoba Province","municipality":"Cordoba","iata_code":null,"icao_code":null,"gps_code":null},
{"ident":"AR-0088","type":"small_airport","name":"Casilda Airport","latitude_deg":-33.0617,"longitude_deg":-61.21,"elevation_ft":252,"country":"Argentina","region":"Santa Fe Province","municipality":"Casilda","iata_code":null,"icao_code":null,"gps_code":null},
{"ident":"AR-0089","type":"small_airport","name":"Castelli Airport","latitude_deg":-36.11000061035156,"longitude_deg":-57.86194610595703,"elevation_ft":33,"country":"Argentina","region":"Buenos Aires Province","municipality":"Castelli","iata_code":null,"icao_code":null,"gps_code":null},
{"ident":"AR-0090","type":"small_airport","name":"Castelli Airport","latitude_deg":-25.93083381652832,"longitude_deg":-60.628055572509766,"elevation_ft":364,"country":"Argentina","region":"Chaco Province","municipality":"Chaco","iata_code":null,"icao_code":null,"gps_code":null},
{"ident":"AR-0091","type":"heliport","name":"Centinela Heliport","latitude_deg":-34.582458,"longitude_deg":-58.37454,"elevation_ft":42,"country":"Argentina","region":"Buenos Aires (Autonomous City)","municipality":"Buenos Aires","iata_code":null,"icao_code":null,"gps_code":null},
{"ident":"AR-0092","type":"heliport","name":"Central Nuclear Heliport","latitude_deg":-32.2294,"longitude_deg":-64.44,"elevation_ft":1738,"country":"Argentina","region":"Córdoba Province","municipality":"Embalse Rio Tercero","iata_code":null,"icao_code":null,"gps_code":null},
{"ident":"AR-0093","type":"heliport","name":"Centro Cívico Grand Bourg Heliport","latitude_deg":-24.7806,"longitude_deg":-65.4514,"elevation_ft":4132,"country":"Argentina","region":"Salta Province","municipality":"Salta","iata_code":null,"icao_code":null,"gps_code":null},
{"ident":"AR-0094","type":"small_airport","name":"Cereales Anahi Ruca Airport","latitude_deg":-35.6736106873,"longitude_deg":-63.7180557251,"elevation_ft":455,"country":"Argentina","region":"La Pampa Province","municipality":"General Pico","iata_code":null,"icao_code":null,"gps_code":null},
{"ident":"AR-0095","type":"heliport","name":"Cerro Chapelco Heliport","latitude_deg":-40.1981,"longitude_deg":-71.3211,"elevation_ft":4281,"country":"Argentina","region":"Neuquén Province","municipality":"San Martín De Los Andes","iata_code":null,"icao_code":null,"gps_code":null},
{"ident":"AR-0096","type":"small_airport","name":"Chacabuco Airport","latitude_deg":-34.6069,"longitude_deg":-60.4097,"elevation_ft":226,"country":"Argentina","region":"Buenos Aires Province","municipality":"Chacabuco","iata_code":null,"icao_code":null,"gps_code":null},
{"ident":"AR-0097","type":"small_airport","name":"Chacharramendi Airport","latitude_deg":-37.340599,"longitude_deg":-65.646698,"elevation_ft":951,"country":"Argentina","region":"La Pampa Province","municipality":"Chacharramendi","iata_code":null,"icao_code":null,"gps_code":null},
{"ident":"AR-0098","type":"small_airport","name":"Chajari Airport","latitude_deg":-30.7542,"longitude_deg":-58.0,"elevation_ft":173,"country":"Argentina","region":"Entre Ríos Province","municipality":"Chajari","iata_code":null,"icao_code":null,"gps_code":null},
{"ident":"AR-0099","type":"small_airport","name":"Chañar Ladeado Airport","latitude_deg":-33.3333,"longitude_deg":-62.0333,"elevation_ft":367,"country":"Argentina","region":"Santa Fe Province","municipality":"Chañar Ladeado","iata_code":null,"icao_code":null,"gps_code":null},
{"ident":"AR-0100","type":"small_airport","name":"Chascomús Airport","latitude_deg":-35.542621,"longitude_deg":-58.052137,"elevation_ft":32,"country":"Argentina","region":"Buenos Aires Province","municipality":"Chascomús","iata_code":null,"icao_code":null,"gps_code":null},
{"ident":"AR-0101","type":"small_airport","name":"Chivilcoy Airport","latitude_deg":-34.9639,"longitude_deg":-60.0333,"elevation_ft":173,"country":"Argentina","region":"Buenos Aires Province","municipality":"Chivilcoy","iata_code":null,"icao_code":null,"gps_code":"SA4B"},
{"ident":"AR-0102","type":"small_airport","name":"Cholila Airport","latitude_deg":-42.480501,"longitude_deg":-71.456902,"elevation_ft":1883,"country":"Argentina","region":"Chubut Province","municipality":"Cholila","iata_code":null,"icao_code":null,"gps_code":null},
{"ident":"AR-0103","type":"small_airport","name":"Cinco Saltos Airport","latitude_deg":-38.801666,"longitude_deg":-68.037224,"elevation_ft":1171,"country":"Argentina","region":"Río Negro Province","municipality":"Cinco Saltos","iata_code":null,"icao_code":null,"gps_code":null},
{"ident":"AR-0104","type":"heliport","name":"Citefa Heliport","latitude_deg":-34.5575,"longitude_deg":-58.5056,"elevation_ft":55,"country":"Argentina","region":"Buenos Aires Province","municipality":"Villa Martelli","iata_code":null,"icao_code":null,"gps_code":null},
{"ident":"AR-0105","type":"heliport","name":"Ciudad Universitaria Heliport","latitude_deg":-31.4406,"longitude_deg":-64.1894,"elevation_ft":1443,"country":"Argentina","region":"Córdoba Province","municipality":"Cordoba","iata_code":null,"icao_code":null,"gps_code":null},
{"ident":"AR-0106","type":"heliport","name":"Club Nautico San Isidro Heliport","latitude_deg":-34.4614,"longitude_deg":-58.5003,"elevation_ft":6,"country":"Argentina","region":"Buenos Aires Province","municipality":"San Isidro","iata_code":null,"icao_code":null,"gps_code":null},
{"ident":"AR-0107","type":"small_airport","name":"Colón Airport","latitude_deg":-33.9231,"longitude_deg":-61.0461,"elevation_ft":295,"country":"Argentina","region":"Buenos Aires Province","municipality":"Colón","iata_code":null,"icao_code":null,"gps_code":null},
{"ident":"AR-0108","type":"small_airport","name":"Colon Airport","latitude_deg":-32.2614,"longitude_deg":-58.1556,"elevation_ft":65,"country":"Argentina","region":"Entre Ríos Province","municipality":"Colon","iata_code":null,"icao_code":null,"gps_code":null},
{"ident":"AR-0109","type":"heliport","name":"Llao Llao Complex Heliport","latitude_deg":-41.054708,"longitude_deg":-71.533871,"elevation_ft":2542,"country":"Argentina","region":"Río Negro Province","municipality":"San Carlos de Bariloche","iata_code":null,"icao_code":null,"gps_code":null},
{"ident":"AR-0110","type":"small_airport","name":"Concepcion Del Uruguay Airport","latitude_deg":-32.4519,"longitude_deg":-58.3058,"elevation_ft":121,"country":"Argentina","region":"Entre Ríos Province","municipality":"Concepcion Del Uruguay","iata_code":null,"icao_code":null,"gps_code":null},
{"ident":"AR-0111","type":"small_airport","name":"Concordia Aeroclub Airport","latitude_deg":-31.3042,"longitude_deg":-58.0153,"elevation_ft":131,"country":"Argentina","region":"Entre Ríos Province","municipality":"Concordia","iata_code":null,"icao_code":null,"gps_code":null},
{"ident":"AR-0112","type":"small_airport","name":"Confluencia Airport","latitude_deg":-36.771400451699996,"longitude_deg":-69.5385971069,"elevation_ft":4964,"country":"Argentina","region":"Mendoza Province","municipality":"Confluencia","iata_code":null,"icao_code":null,"gps_code":null},
{"ident":"AR-0113","type":"small_airport","name":"Coronel Dorrego Airport","latitude_deg":-38.7411,"longitude_deg":-61.2561,"elevation_ft":393,"country":"Argentina","region":"Buenos Aires Province","municipality":"Coronel Dorrego","iata_code":null,"icao_code":null,"gps_code":null},
{"ident":"AR-0114","type":"small_airport","name":"Coronel Pringles Airport","latitude_deg":-38.0066680908,"longitude_deg":-61.331943512,"elevation_ft":810,"country":"Argentina","region":"Buenos Aires Province","municipality":"Coronel Pringles","iata_code":null,"icao_code":null,"gps_code":"SABP"},
{"ident":"AR-0115","type":"small_airport","name":"Coronel Vidal Airport","latitude_deg":-37.4689,"longitude_deg":-57.7669,"elevation_ft":85,"country":"Argentina","region":"Buenos Aires Province","municipality":"Coronel Vidal","iata_code":null,"icao_code":null,"gps_code":null},
{"ident":"AR-0116","type":"small_airport","name":"Corral De Bustos Airport","latitude_deg":-33.2811,"longitude_deg":-62.1514,"elevation_ft":393,"country":"Argentina","region":"Córdoba Province","municipality":"Corral de Bustos","iata_code":null,"icao_code":null,"gps_code":null},
{"ident":"AR-0117","type":"small_airport","name":"Santa María Airport","latitude_deg":-31.2861,"longitude_deg":-64.455299,"elevation_ft":2296,"country":"Argentina","region":"Córdoba Province","municipality":"Cosquin","iata_code":null,"icao_code":null,"gps_code":null},
{"ident":"AR-0118","type":"small_airport","name":"Cruz Alta Airport","latitude_deg":-33.0078,"longitude_deg":-61.8369,"elevation_ft":318,"country":"Argentina","region":"Córdoba Province","municipality":"Cruz Alta","iata_code":null,"icao_code":null,"gps_code":null},
{"ident":"AR-0119","type":"small_airport","name":"Curuzu Cuatia Aeroclub Airport","latitude_deg":-29.7789,"longitude_deg":-58.0958,"elevation_ft":262,"country":"Argentina","region":"Corrientes Province","municipality":"Curuzu Cuatia","iata_code":null,"icao_code":null,"gps_code":null},
{"ident":"AR-0120","type":"heliport","name":"D.P.A.O. Heliport","latitude_deg":-34.9597,"longitude_deg":-57.8928,"elevation_ft":62,"country":"Argentina","region":"Buenos Aires Province","municipality":"La Plata","iata_code":null,"icao_code":null,"gps_code":null},
{"ident":"AR-0121","type":"small_airport","name":"Fumigaciones Rodriguez Airport","latitude_deg":-36.590491,"longitude_deg":-61.774888,"elevation_ft":371,"country":"Argentina","region":"Buenos Aires Province","municipality":"Daireaux","iata_code":null,"icao_code":null,"gps_code":"SAE3"},
{"ident":"AR-0122","type":"small_airport","name":"Darregueira Airport","latitude_deg":-37.7127990723,"longitude_deg":-63.161899566699994,"elevation_ft":649,"country":"Argentina","region":"Buenos Aires Province","municipality":"Darregueira","iata_code":null,"icao_code":null,"gps_code":null},
{"ident":"AR-0123","type":"heliport","name":"Darsena Sur Heliport","latitude_deg":-34.6278,"longitude_deg":-58.3515,"elevation_ft":16,"country":"Argentina","region":"Buenos Aires (Autonomous City)","municipality":"Buenos Aires","iata_code":null,"icao_code":null,"gps_code":null},
{"ident":"AR-0124","type":"small_airport","name":"Dean Funes Airport","latitude_deg":-30.379199981699998,"longitude_deg":-64.379699707,"elevation_ft":2259,"country":"Argentina","region":"Córdoba Province","municipality":"Dean Funes","iata_code":null,"icao_code":null,"gps_code":null},
{"ident":"AR-0125","type":"small_airport","name":"Diamante Airport","latitude_deg":-32.0161,"longitude_deg":-60.5825,"elevation_ft":246,"country":"Argentina","region":"Entre Ríos Province","municipality":"Diamante","iata_code":null,"icao_code":null,"gps_code":null},
{"ident":"AR-0126","type":"heliport","name":"Dines (Doctor E. Escudero) Heliport","latitude_deg":-34.57257,"longitude_deg":-58.40045,"elevation_ft":19,"country":"Argentina","region":"Buenos Aires (Autonomous City)","municipality":"Buenos Aires","iata_code":null,"icao_code":null,"gps_code":null},
{"ident":"AR-0127","type":"small_airport","name":"Agrocelta Servicios Aereos Airport","latitude_deg":-33.8867,"longitude_deg":-60.8628,"elevation_ft":269,"country":"Argentina","region":"Buenos Aires Province","municipality":"Mariano H. Alfonzo","iata_code":null,"icao_code":null,"gps_code":null},
{"ident":"AR-0128","type":"small_airport","name":"Saavedra Airport","latitude_deg":-37.750242,"longitude_deg":-62.33425,"elevation_ft":1040,"country":"Argentina","region":"Buenos Aires Province","municipality":"Saavedra","iata_code":null,"icao_code":null,"gps_code":null},
{"ident":"AR-0129","type":"heliport","name":"Ecodyma S.C.A. Heliport","latitude_deg":-34.9408,"longitude_deg":-57.9919,"elevation_ft":45,"country":"Argentina","region":"Buenos Aires Province","municipality":"La Plata","iata_code":null,"icao_code":null,"gps_code":null},
{"ident":"AR-0130","type":"small_airport","name":"Eduardo Castex Airport","latitude_deg":-35.8805541992,"longitude_deg":-64.2738876343,"elevation_ft":600,"country":"Argentina","region":"La Pampa Province","municipality":"Eduardo Castex","iata_code":null,"icao_code":null,"gps_code":null},
{"ident":"AR-0131","type":"small_airport","name":"El Alamito Airport","latitude_deg":-37.27361297607422,"longitude_deg":-70.38972473144531,"elevation_ft":3576,"country":"Argentina","region":"Neuquén Province","municipality":"El Alamito","iata_code":null,"icao_code":null,"gps_code":null},
{"ident":"AR-0132","type":"small_airport","name":"Establecimiento El Araza Airport","latitude_deg":-36.7756,"longitude_deg":-57.6414,"elevation_ft":305,"country":"Argentina","region":"Buenos Aires Province","municipality":"Maipu","iata_code":null,"icao_code":null,"gps_code":null},
{"ident":"AR-0133","type":"heliport","name":"El Capricho Heliport","latitude_deg":-34.2325,"longitude_deg":-59.3158,"elevation_ft":98,"country":"Argentina","region":"Buenos Aires Province","municipality":"Chenaut","iata_code":null,"icao_code":null,"gps_code":null},
{"ident":"AR-0134","type":"small_airport","name":"El Corcovado Airport","latitude_deg":-43.5336,"longitude_deg":-71.484703,"elevation_ft":1968,"country":"Argentina","region":"Chubut Province","municipality":"Corcovado","iata_code":null,"icao_code":null,"gps_code":"SAE8"},
{"ident":"AR-0135","type":"small_airport","name":"El Gaucho Airport","latitude_deg":-32.6294,"longitude_deg":-61.5444,"elevation_ft":344,"country":"Argentina","region":"Santa Fe Province","municipality":"Las Parejas","iata_code":null,"icao_code":null,"gps_code":null},
{"ident":"AR-0137","type":"small_airport","name":"El Pajaro Airport","latitude_deg":-34.823537,"longitude_deg":-58.316307,"elevation_ft":52,"country":"Argentina","region":"Buenos Aires Province","municipality":"Florencio Varela","iata_code":null,"icao_code":null,"gps_code":null},
{"ident":"AR-0138","type":"small_airport","name":"El Pampero Airport","latitude_deg":-36.5928001404,"longitude_deg":-64.1866989136,"elevation_ft":583,"country":"Argentina","region":"La Pampa Province","municipality":"Santa Rosa","iata_code":null,"icao_code":null,"gps_code":null},
{"ident":"AR-0139","type":"small_airport","name":"El Trebol Airport","latitude_deg":-32.2153,"longitude_deg":-61.7161,"elevation_ft":301,"country":"Argentina","region":"Santa Fe Province","municipality":"El Trebol","iata_code":null,"icao_code":null,"gps_code":"SAFT"},
{"ident":"AR-0140","type":"closed","name":"Elizalde Airport","latitude_deg":-34.975122,"longitude_deg":-57.963396,"elevation_ft":22,"country":"Argentina","region":"Buenos Aires Province","municipality":"La Plata","iata_code":null,"icao_code":null,"gps_code":null},
{"ident":"AR-0141","type":"small_airport","name":"Esperanza Airport","latitude_deg":-31.4736,"longitude_deg":-60.8447,"elevation_ft":124,"country":"Argentina","region":"Santa Fe Province","municipality":"Esperanza","iata_code":null,"icao_code":null,"gps_code":null},
{"ident":"AR-0142","type":"small_airport","name":"Esquina Airport","latitude_deg":-30.0489,"longitude_deg":-59.5353,"elevation_ft":127,"country":"Argentina","region":"Corrientes Province","municipality":"Esquina","iata_code":null,"icao_code":null,"gps_code":null},
{"ident":"AR-0143","type":"small_airport","name":"Estancia Don Roberto Airport","latitude_deg":-34.0013999939,"longitude_deg":-65.366897583,"elevation_ft":1430,"country":"Argentina","region":"San Luis Province","municipality":"Villa Mercedes","iata_code":null,"icao_code":null,"gps_code":null},
{"ident":"AR-0144","type":"heliport","name":"Estancia Haychol Heliport","latitude_deg":-38.6481,"longitude_deg":-70.6775,"elevation_ft":3447,"country":"Argentina","region":"Neuquén Province","municipality":"Las Lajas","iata_code":null,"icao_code":null,"gps_code":null},
{"ident":"AR-0145","type":"heliport","name":"Estancia La Candelaria Heliport","latitude_deg":-40.0442,"longitude_deg":-71.3664,"elevation_ft":2997,"country":"Argentina","region":"Neuquén Province","municipality":"San Martin De Los Andes","iata_code":null,"icao_code":null,"gps_code":null},
{"ident":"AR-0146","type":"heliport","name":"Estancia La Chacota Heliport","latitude_deg":-35.9133,"longitude_deg":-62.6417,"elevation_ft":295,"country":"Argentina","region":"Buenos Aires Province","municipality":"Trenque Lauquen","iata_code":null,"icao_code":null,"gps_code":null},
{"ident":"AR-0147","type":"small_airport","name":"Estancia La Choza Airport","latitude_deg":-30.5389,"longitude_deg":-58.2928,"elevation_ft":236,"country":"Argentina","region":"Entre Ríos Province","municipality":"Chajari","iata_code":null,"icao_code":null,"gps_code":null},
{"ident":"AR-0148","type":"small_airport","name":"Estancia La Laurita Airport","latitude_deg":-44.7761116027832,"longitude_deg":-70.1963882446289,"elevation_ft":1834,"country":"Argentina","region":"Chubut Province","municipality":"Alto Rio Senguerr","iata_code":null,"icao_code":null,"gps_code":null},
{"ident":"AR-0149","type":"small_airport","name":"Estancia Llamuco Airport","latitude_deg":-38.79944610595703,"longitude_deg":-70.43472290039062,"elevation_ft":3924,"country":"Argentina","region":"Neuquén Province","municipality":"Llamuco","iata_code":null,"icao_code":null,"gps_code":null},
{"ident":"AR-0150","type":"small_airport","name":"Estancia Los Cardos Airport","latitude_deg":-37.7356,"longitude_deg":-58.0342,"elevation_ft":393,"country":"Argentina","region":"Buenos Aires Province","municipality":"Balcarce","iata_code":null,"icao_code":null,"gps_code":"SA2Q"},
{"ident":"AR-0151","type":"small_airport","name":"Estancia Nueva Lubecka Airport","latitude_deg":-44.44194412231445,"longitude_deg":-70.44222259521484,"elevation_ft":2021,"country":"Argentina","region":"Chubut Province","municipality":"Jose de San Martin","iata_code":null,"icao_code":null,"gps_code":null},
{"ident":"AR-0152","type":"heliport","name":"Estancia Palitue Heliport","latitude_deg":-39.8528,"longitude_deg":-71.0464,"elevation_ft":2817,"country":"Argentina","region":"Neuquén Province","municipality":"Junin De Los Andes","iata_code":null,"icao_code":null,"gps_code":null},
{"ident":"AR-0153","type":"small_airport","name":"Estancia San Juan Airport","latitude_deg":-29.6028,"longitude_deg":-58.0281,"elevation_ft":268,"country":"Argentina","region":"Corrientes Province","municipality":"Curuzu Cuatia","iata_code":null,"icao_code":null,"gps_code":null},
{"ident":"AR-0154","type":"small_airport","name":"Estancia San Ramón Airport","latitude_deg":-50.303495,"longitude_deg":-69.926057,"elevation_ft":1226,"country":"Argentina","region":"Santa Cruz Province","municipality":"Santa Cruz","iata_code":null,"icao_code":null,"gps_code":null},
{"ident":"AR-0155","type":"small_airport","name":"Estancia Santa Ana Airport","latitude_deg":-51.680841,"longitude_deg":-71.9652,"elevation_ft":665,"country":"Argentina","region":"Santa Cruz Province","municipality":"El Turbio","iata_code":null,"icao_code":null,"gps_code":null},
{"ident":"AR-0156","type":"heliport","name":"Estancia Santa Isabel Heliport","latitude_deg":-39.8847,"longitude_deg":-70.5136,"elevation_ft":3116,"country":"Argentina","region":"Neuquén Province","municipality":"Catan Lil","iata_code":null,"icao_code":null,"gps_code":null},
{"ident":"AR-0157","type":"small_airport","name":"Estindher Airport","latitude_deg":-33.0931015015,"longitude_deg":-64.42919921880001,"elevation_ft":1531,"country":"Argentina","region":"Córdoba Province","municipality":"Rio Cuarto","iata_code":null,"icao_code":null,"gps_code":null},
{"ident":"AR-0158","type":"small_airport","name":"Ezpeleta Airport","latitude_deg":-34.7464,"longitude_deg":-58.2033,"elevation_ft":9,"country":"Argentina","region":"Buenos Aires Province","municipality":"Ezpeleta","iata_code":null,"icao_code":null,"gps_code":null},
{"ident":"AR-0159","type":"heliport","name":"Finca Las Costas Heliport","latitude_deg":-24.7703,"longitude_deg":-65.4956,"elevation_ft":4300,"country":"Argentina","region":"Salta Province","municipality":"Salta","iata_code":null,"icao_code":null,"gps_code":null},
{"ident":"AR-0160","type":"small_airport","name":"Firmat Aeroclub Airport","latitude_deg":-33.4289,"longitude_deg":-61.5108,"elevation_ft":344,"country":"Argentina","region":"Santa Fe Province","municipality":"Firmat","iata_code":null,"icao_code":null,"gps_code":null},
{"ident":"AR-0161","type":"small_airport","name":"Aeródromo sede del Aeroclub Formosa","latitude_deg":-26.3014,"longitude_deg":-58.2983,"elevation_ft":229,"country":"Argentina","region":"Formosa Province","municipality":"Formosa","iata_code":null,"icao_code":null,"gps_code":null},
{"ident":"AR-0162","type":"small_airport","name":"Fortín De Gainza Airport","latitude_deg":-34.5494,"longitude_deg":-63.1225,"elevation_ft":426,"country":"Argentina","region":"Buenos Aires Province","municipality":"Santa Regina","iata_code":null,"icao_code":null,"gps_code":null},
{"ident":"AR-0163","type":"heliport","name":"Fuerza Aérea(Edificio Cóndor) Heliport","latitude_deg":-34.5858,"longitude_deg":-58.3681,"elevation_ft":19,"country":"Argentina","region":"Buenos Aires (Autonomous City)","municipality":"Buenos Aires","iata_code":null,"icao_code":null,"gps_code":null},
{"ident":"AR-0164","type":"small_airport","name":"Fumigaciones Stadler Airport","latitude_deg":-32.5786,"longitude_deg":-60.9119,"elevation_ft":121,"country":"Argentina","region":"Santa Fe Province","municipality":"Serodino","iata_code":null,"icao_code":null,"gps_code":null},
{"ident":"AR-0165","type":"small_airport","name":"Galvez Airport","latitude_deg":-32.0322,"longitude_deg":-61.1758,"elevation_ft":173,"country":"Argentina","region":"Santa Fe Province","municipality":"Galvez","iata_code":null,"icao_code":null,"gps_code":null},
{"ident":"AR-0166","type":"small_airport","name":"General Alvear Aeroclub Airport","latitude_deg":-34.9730987549,"longitude_deg":-67.7236022949,"elevation_ft":1528,"country":"Argentina","region":"Mendoza Province","municipality":"General Alvear","iata_code":null,"icao_code":null,"gps_code":null},
{"ident":"AR-0167","type":"small_airport","name":"General Belgrano Airport","latitude_deg":-35.7519,"longitude_deg":-58.4633,"elevation_ft":39,"country":"Argentina","region":"Buenos Aires Province","municipality":"General Belgrano","iata_code":null,"icao_code":null,"gps_code":null},
{"ident":"AR-0168","type":"small_airport","name":"General Deheza Airport","latitude_deg":-32.745300293,"longitude_deg":-63.7957992554,"elevation_ft":898,"country":"Argentina","region":"Córdoba Province","municipality":"General Deheza","iata_code":null,"icao_code":null,"gps_code":null},
{"ident":"AR-0169","type":"small_airport","name":"General La Madrid Airport","latitude_deg":-37.226261,"longitude_deg":-61.279101,"elevation_ft":560,"country":"Argentina","region":"Buenos Aires Province","municipality":"General La Madrid","iata_code":null,"icao_code":null,"gps_code":"SA6B"},
{"ident":"AR-0170","type":"small_airport","name":"General Las Heras Aeroclub","latitude_deg":-34.9206,"longitude_deg":-58.9164,"elevation_ft":114,"country":"Argentina","region":"Buenos Aires Province","municipality":"General Las Heras","iata_code":null,"icao_code":null,"gps_code":null},
{"ident":"AR-0171","type":"small_airport","name":"General Levalle Airport","latitude_deg":-34.0038871765,"longitude_deg":-63.9308319092,"elevation_ft":614,"country":"Argentina","region":"Córdoba Province","municipality":"General Levalle","iata_code":null,"icao_code":null,"gps_code":null},
{"ident":"AR-0172","type":"small_airport","name":"General Madariaga Airport","latitude_deg":-37.0392,"longitude_deg":-57.1372,"elevation_ft":22,"country":"Argentina","region":"Buenos Aires Province","municipality":"General Madariaga","iata_code":null,"icao_code":null,"gps_code":null},
{"ident":"AR-0173","type":"small_airport","name":"General Pìnedo Airport","latitude_deg":-27.3394,"longitude_deg":-61.2744,"elevation_ft":298,"country":"Argentina","region":"Chaco Province","municipality":"General Pìnedo","iata_code":null,"icao_code":null,"gps_code":null},
{"ident":"AR-0174","type":"small_airport","name":"General Pinto Airport","latitude_deg":-34.7861,"longitude_deg":-61.9142,"elevation_ft":318,"country":"Argentina","region":"Buenos Aires Province","municipality":"General Pinto","iata_code":null,"icao_code":null,"gps_code":null},
{"ident":"AR-0175","type":"closed","name":"General Rodriguez Airport","latitude_deg":-34.497234,"longitude_deg":-59.037457,"elevation_ft":98,"country":"Argentina","region":"Buenos Aires Province","municipality":"General Rodriguez","iata_code":null,"icao_code":null,"gps_code":null},
{"ident":"AR-0176","type":"small_airport","name":"Los Toldos Airport","latitude_deg":-34.97726,"longitude_deg":-61.020942,"elevation_ft":236,"country":"Argentina","region":"Buenos Aires Province","municipality":"General Viamonte","iata_code":null,"icao_code":null,"gps_code":null},
{"ident":"AR-0177","type":"small_airport","name":"Gobernador Crespo Aeroclub Airport","latitude_deg":-30.3878,"longitude_deg":-60.3656,"elevation_ft":170,"country":"Argentina","region":"Santa Fe Province","municipality":"Gobernador Crespo","iata_code":null,"icao_code":null,"gps_code":null},
{"ident":"AR-0178","type":"small_airport","name":"Gobernador Santillán Airport","latitude_deg":-27.901399612426758,"longitude_deg":-64.24970245361328,"elevation_ft":689,"country":"Argentina","region":"Santiago del Estero Province","municipality":"Santiago Del Estero","iata_code":null,"icao_code":null,"gps_code":null},
{"ident":"AR-0179","type":"small_airport","name":"Gomez Airport","latitude_deg":-35.0956,"longitude_deg":-58.0853,"elevation_ft":62,"country":"Argentina","region":"Buenos Aires Province","municipality":"Gomez","iata_code":null,"icao_code":null,"gps_code":null},
{"ident":"AR-0180","type":"small_airport","name":"Gonzales Chaves Airport","latitude_deg":-38.02949,"longitude_deg":-60.135654,"elevation_ft":636,"country":"Argentina","region":"Buenos Aires Province","municipality":"Adolfo Gonzales Chaves","iata_code":null,"icao_code":null,"gps_code":"SA6R"},
{"ident":"AR-0181","type":"small_airport","name":"Goya Aeroclub","latitude_deg":-29.1678,"longitude_deg":-59.2464,"elevation_ft":124,"country":"Argentina","region":"Corrientes Province","municipality":"Goya","iata_code":null,"icao_code":null,"gps_code":null},
{"ident":"AR-0182","type":"small_airport","name":"Guadalupe Airport","latitude_deg":-31.584,"longitude_deg":-60.668,"elevation_ft":59,"country":"Argentina","region":"Santa Fe Province","municipality":"Santa Fe","iata_code":null,"icao_code":null,"gps_code":null},
{"ident":"AR-0183","type":"small_airport","name":"Gualeguay Airport","latitude_deg":-33.1036109924,"longitude_deg":-59.3747215271,"elevation_ft":39,"country":"Argentina","region":"Entre Ríos Province","municipality":"Gualeguay","iata_code":null,"icao_code":null,"gps_code":null},
{"ident":"AR-0184","type":"small_airport","name":"Agro Aereo Gualeguay Airport","latitude_deg":-33.0386,"longitude_deg":-59.4383,"elevation_ft":52,"country":"Argentina","region":"Entre Ríos Province","municipality":"Gualeguay","iata_code":null,"icao_code":null,"gps_code":null},
{"ident":"AR-0185","type":"heliport","name":"Helicenter Heliport","latitude_deg":-34.497565,"longitude_deg":-58.606905,"elevation_ft":113,"country":"Argentina","region":"Buenos Aires Province","municipality":"Don Torcuato","iata_code":null,"icao_code":null,"gps_code":null},
{"ident":"AR-0186","type":"heliport","name":"Heliplataforma Am I Heliport","latitude_deg":-52.5192,"longitude_deg":-68.3858,"elevation_ft":98,"country":"Argentina","region":"Santa Cruz Province","municipality":"Santa Cruz","iata_code":null,"icao_code":null,"gps_code":null},
{"ident":"AR-0187","type":"heliport","name":"Heliplataforma Carina/Total Fina ELF","latitude_deg":-52.7572,"longitude_deg":-67.2194,"elevation_ft":30,"country":"Argentina","region":"Tierra del Fuego Province","municipality":"Santa Cruz","iata_code":null,"icao_code":null,"gps_code":null},
{"ident":"AR-0188","type":"heliport","name":"Heliplataforma/Am-2 Heliport","latitude_deg":-52.5489,"longitude_deg":-68.3125,"elevation_ft":134,"country":"Argentina","region":"Santa Cruz Province","municipality":"Santa Cruz","iata_code":null,"icao_code":null,"gps_code":null},
{"ident":"AR-0189","type":"heliport","name":"Heliplataforma/Am3 Heliport","latitude_deg":-52.5228,"longitude_deg":-68.2808,"elevation_ft":134,"country":"Argentina","region":"Santa Cruz Province","municipality":"Santa Cruz","iata_code":null,"icao_code":null,"gps_code":null},
{"ident":"AR-0190","type":"heliport","name":"Heliplataforma/Am5 Heliport","latitude_deg":-52.5706,"longitude_deg":-68.2533,"elevation_ft":98,"country":"Argentina","region":"Santa Cruz Province","municipality":"Santa Cruz","iata_code":null,"icao_code":null,"gps_code":null},
{"ident":"AR-0191","type":"heliport","name":"Heliplataforma/Rio Cullen-Hidra Norte Heliport","latitude_deg":-52.8206,"longitude_deg":-68.2192,"elevation_ft":65,"country":"Argentina","region":"Tierra del Fuego Province","municipality":"Santa Cruz","iata_code":null,"icao_code":null,"gps_code":null},
{"ident":"AR-0192","type":"heliport","name":"Heliwest Heliport","latitude_deg":-34.6336,"longitude_deg":-58.7511,"elevation_ft":71,"country":"Argentina","region":"Buenos Aires Province","municipality":"Moreno","iata_code":null,"icao_code":null,"gps_code":null},
{"ident":"AR-0193","type":"small_airport","name":"Henderson Airport","latitude_deg":-36.3147010803,"longitude_deg":-61.747798919699996,"elevation_ft":492,"country":"Argentina","region":"Buenos Aires Province","municipality":"Henderson","iata_code":null,"icao_code":null,"gps_code":null},
{"ident":"AR-0194","type":"heliport","name":"Hospital De Milagro Heliport","latitude_deg":-24.7731,"longitude_deg":-65.4156,"elevation_ft":4068,"country":"Argentina","region":"Salta Province","municipality":"Salta","iata_code":null,"icao_code":null,"gps_code":null},
{"ident":"AR-0195","type":"heliport","name":"Hospital Materno Infantil San Roque Heliport","latitude_deg":-31.73,"longitude_deg":-60.5217,"elevation_ft":265,"country":"Argentina","region":"Entre Ríos Province","municipality":"Paraná","iata_code":null,"icao_code":null,"gps_code":null},
{"ident":"AR-0196","type":"heliport","name":"Hospital Municipal Heliport","latitude_deg":-34.4489,"longitude_deg":-59.4494,"elevation_ft":154,"country":"Argentina","region":"Buenos Aires Province","municipality":"San Andres De Giles","iata_code":null,"icao_code":null,"gps_code":null},
{"ident":"AR-0197","type":"heliport","name":"Professor Juan P Garrahan National Pediatric Hospital Heliport","latitude_deg":-34.630983,"longitude_deg":-58.393916,"elevation_ft":127,"country":"Argentina","region":"Buenos Aires (Autonomous City)","municipality":"Buenos Aires","iata_code":null,"icao_code":null,"gps_code":null},
{"ident":"AR-0198","type":"small_airport","name":"Huanguelen Airport","latitude_deg":-37.0330543518,"longitude_deg":-61.934165954600005,"elevation_ft":518,"country":"Argentina","region":"Buenos Aires Province","municipality":"Huanguelen","iata_code":null,"icao_code":null,"gps_code":null},
{"ident":"AR-0199","type":"small_airport","name":"Huinca Renanco Airport","latitude_deg":-34.8203010559,"longitude_deg":-64.3731002808,"elevation_ft":590,"country":"Argentina","region":"Córdoba Province","municipality":"Huinca Renanco","iata_code":null,"icao_code":null,"gps_code":null},
{"ident":"AR-0200","type":"small_airport","name":"Ingeniero Luiggi Airport","latitude_deg":-35.3549995422,"longitude_deg":-64.4758300781,"elevation_ft":633,"country":"Argentina","region":"La Pampa Province","municipality":"Ingeniero Luiggi","iata_code":null,"icao_code":null,"gps_code":null},
{"ident":"AR-0201","type":"small_airport","name":"Agroservicio Doña Teresa Airport","latitude_deg":-28.8494,"longitude_deg":-62.2625,"elevation_ft":246,"country":"Argentina","region":"Santiago del Estero Province","municipality":"Bandera","iata_code":null,"icao_code":null,"gps_code":null},
{"ident":"AR-0202","type":"small_airport","name":"Establecimiento La Susana Airport","latitude_deg":-34.910632,"longitude_deg":-59.348678,"elevation_ft":121,"country":"Argentina","region":"Buenos Aires Province","municipality":"Ingeniero Williams","iata_code":null,"icao_code":null,"gps_code":null},
{"ident":"AR-0203","type":"small_airport","name":"Intendente Alvear Airport","latitude_deg":-35.2592,"longitude_deg":-63.5328,"elevation_ft":416,"country":"Argentina","region":"La Pampa Province","municipality":"Intendente Alvear","iata_code":null,"icao_code":null,"gps_code":null},
{"ident":"AR-0204","type":"small_airport","name":"Intendente Alvear","latitude_deg":-35.2494,"longitude_deg":-63.5342,"elevation_ft":416,"country":"Argentina","region":"La Pampa Province","municipality":"Intendente Alvear","iata_code":null,"icao_code":null,"gps_code":null},
{"ident":"AR-0205","type":"small_airport","name":"Fumigaciones Herbinsec Airport","latitude_deg":-35.138611,"longitude_deg":-62.705278,"elevation_ft":366,"country":"Argentina","region":"Buenos Aires Province","municipality":"Roberts","iata_code":null,"icao_code":null,"gps_code":null},
{"ident":"AR-0206","type":"heliport","name":"Isla Santa Mónica Heliport","latitude_deg":-34.4147,"longitude_deg":-58.5072,"elevation_ft":14,"country":"Argentina","region":"Buenos Aires Province","municipality":"Tigre","iata_code":null,"icao_code":null,"gps_code":null},
{"ident":"AR-0207","type":"small_airport","name":"Don Hector Biondi Airport","latitude_deg":-33.2464,"longitude_deg":-62.4167,"elevation_ft":387,"country":"Argentina","region":"Córdoba Province","municipality":"Isla Verde","iata_code":null,"icao_code":null,"gps_code":null},
{"ident":"AR-0208","type":"small_airport","name":"Italaviation Airport","latitude_deg":-29.1608,"longitude_deg":-59.1814,"elevation_ft":209,"country":"Argentina","region":"Corrientes Province","municipality":"Goya","iata_code":null,"icao_code":null,"gps_code":null},
{"ident":"AR-0209","type":"small_airport","name":"Jacinto Arauz Airport","latitude_deg":-38.066101074200006,"longitude_deg":-63.4282989502,"elevation_ft":524,"country":"Argentina","region":"La Pampa Province","municipality":"Jacinto Arauz","iata_code":null,"icao_code":null,"gps_code":null},
{"ident":"AR-0210","type":"small_airport","name":"Jardin De América Airport","latitude_deg":-27.032499,"longitude_deg":-55.198055,"elevation_ft":672,"country":"Argentina","region":"Misiones Province","municipality":"Jardin de América","iata_code":null,"icao_code":null,"gps_code":null},
{"ident":"AR-0211","type":"small_airport","name":"Jesús Maria Airport","latitude_deg":-30.988100051900002,"longitude_deg":-64.0768966675,"elevation_ft":1738,"country":"Argentina","region":"Córdoba Province","municipality":"Jesús Maria","iata_code":null,"icao_code":null,"gps_code":null},
{"ident":"AR-0212","type":"small_airport","name":"Agropecuaria Rio Juramento Airport","latitude_deg":-25.1867008209,"longitude_deg":-64.0828018188,"elevation_ft":1184,"country":"Argentina","region":"Salta Province","municipality":"Joaquin V. Gonzalez","iata_code":null,"icao_code":null,"gps_code":null},
{"ident":"AR-0213","type":"small_airport","name":"Tres Lomas Airport","latitude_deg":-36.4439,"longitude_deg":-62.8792,"elevation_ft":380,"country":"Argentina","region":"Buenos Aires Province","municipality":"Jose Maria Blanco","iata_code":null,"icao_code":null,"gps_code":null},
{"ident":"AR-0214","type":"small_airport","name":"Juan Carlos Bagur Airport","latitude_deg":-32.4186,"longitude_deg":-59.8158,"elevation_ft":190,"country":"Argentina","region":"Entre Ríos Province","municipality":"Nogoya","iata_code":null,"icao_code":null,"gps_code":null},
{"ident":"AR-0215","type":"heliport","name":"Juan Y Luci Heliport","latitude_deg":-32.6922,"longitude_deg":-64.7206,"elevation_ft":2404,"country":"Argentina","region":"Córdoba Province","municipality":"Alpa Corral","iata_code":null,"icao_code":null,"gps_code":null},
{"ident":"AR-0216","type":"small_airport","name":"Juarez Celman Airport","latitude_deg":-31.2113895416,"longitude_deg":-64.1613922119,"elevation_ft":1680,"country":"Argentina","region":"Córdoba Province","municipality":"Juarez Celman","iata_code":null,"icao_code":null,"gps_code":null},
{"ident":"AR-0217","type":"small_airport","name":"La Angelita Airport","latitude_deg":-30.8522,"longitude_deg":-58.7067,"elevation_ft":229,"country":"Argentina","region":"Entre Ríos Province","municipality":"Federal","iata_code":null,"icao_code":null,"gps_code":null},
{"ident":"AR-0218","type":"small_airport","name":"Trenque Lauquen Airport","latitude_deg":-36.0158,"longitude_deg":-62.6939,"elevation_ft":324,"country":"Argentina","region":"Buenos Aires Province","municipality":"Trenque Lauquen","iata_code":null,"icao_code":null,"gps_code":"SA28"},
{"ident":"AR-0219","type":"small_airport","name":"La Caida Airport","latitude_deg":-34.859281,"longitude_deg":-58.342426,"elevation_ft":91,"country":"Argentina","region":"Buenos Aires Province","municipality":"Longchamps","iata_code":null,"icao_code":null,"gps_code":null},
{"ident":"AR-0220","type":"heliport","name":"La Caldera Heliport","latitude_deg":-36.6669,"longitude_deg":-56.6789,"elevation_ft":32,"country":"Argentina","region":"Buenos Aires Province","municipality":"Costa Azul","iata_code":null,"icao_code":null,"gps_code":null},
{"ident":"AR-0221","type":"heliport","name":"La Carolina Heliport","latitude_deg":-31.3525,"longitude_deg":-64.2828,"elevation_ft":1485,"country":"Argentina","region":"Córdoba Province","municipality":"La Carolina","iata_code":null,"icao_code":null,"gps_code":null},
{"ident":"AR-0222","type":"small_airport","name":"La Consulta Airport","latitude_deg":-33.7308349609375,"longitude_deg":-69.17388916015625,"elevation_ft":3520,"country":"Argentina","region":"Mendoza Province","municipality":"La Consulta","iata_code":null,"icao_code":null,"gps_code":null},
{"ident":"AR-0223","type":"closed","name":"La Fantasia","latitude_deg":-34.7286,"longitude_deg":-59.109402,"elevation_ft":111,"country":"Argentina","region":"Buenos Aires Province","municipality":"Lujan","iata_code":null,"icao_code":null,"gps_code":null},
{"ident":"AR-0224","type":"small_airport","name":"La Laja Airport","latitude_deg":-31.3513889313,"longitude_deg":-68.47305297850001,"elevation_ft":2132,"country":"Argentina","region":"San Juan Province","municipality":"La Laja","iata_code":null,"icao_code":null,"gps_code":null},
{"ident":"AR-0225","type":"small_airport","name":"Quebracho Herrado Airport","latitude_deg":-34.1553,"longitude_deg":-59.8739,"elevation_ft":170,"country":"Argentina","region":"Buenos Aires Province","municipality":"Capitán Sarmiento","iata_code":null,"icao_code":null,"gps_code":null},
{"ident":"AR-0226","type":"heliport","name":"La Madrugada Heliport","latitude_deg":-34.2382,"longitude_deg":-59.1915,"elevation_ft":85,"country":"Argentina","region":"Buenos Aires Province","municipality":"Capilla Del Señor","iata_code":null,"icao_code":null,"gps_code":null},
{"ident":"AR-0227","type":"small_airport","name":"La Mezquita Airport","latitude_deg":-31.400800705,"longitude_deg":-64.3003005981,"elevation_ft":1672,"country":"Argentina","region":"Córdoba Province","municipality":"Cordoba/La Mezquita","iata_code":null,"icao_code":null,"gps_code":null},
{"ident":"AR-0228","type":"heliport","name":"La Milagrosa Heliport","latitude_deg":-32.4828,"longitude_deg":-58.2506,"elevation_ft":49,"country":"Argentina","region":"Entre Ríos Province","municipality":"Concepcion Del Uruguay","iata_code":null,"icao_code":null,"gps_code":null},
{"ident":"AR-0229","type":"small_airport","name":"La Nueva Airport","latitude_deg":-34.9464,"longitude_deg":-61.3042,"elevation_ft":246,"country":"Argentina","region":"Buenos Aires Province","municipality":"Lincoln","iata_code":null,"icao_code":null,"gps_code":null},
{"ident":"AR-0230","type":"small_airport","name":"La Paz Aeroclub Airport","latitude_deg":-30.743991,"longitude_deg":-59.569333,"elevation_ft":200,"country":"Argentina","region":"Entre Ríos Province","municipality":"La Paz","iata_code":null,"icao_code":null,"gps_code":null},
{"ident":"AR-0231","type":"small_airport","name":"La Pelada Airport","latitude_deg":-30.9556,"longitude_deg":-60.8858,"elevation_ft":144,"country":"Argentina","region":"Santa Fe Province","municipality":"La Pelada","iata_code":null,"icao_code":null,"gps_code":null},
{"ident":"AR-0232","type":"small_airport","name":"La Siesta Airport","latitude_deg":-33.6939,"longitude_deg":-62.0625,"elevation_ft":367,"country":"Argentina","region":"Santa Fe Province","municipality":"Venado Tuerto","iata_code":null,"icao_code":null,"gps_code":null},
{"ident":"AR-0233","type":"heliport","name":"La Superba Heliport","latitude_deg":-34.5008,"longitude_deg":-59.015,"elevation_ft":32,"country":"Argentina","region":"Buenos Aires Province","municipality":"Open Door","iata_code":null,"icao_code":null,"gps_code":null},
{"ident":"AR-0234","type":"small_airport","name":"Laborde Airport","latitude_deg":-33.1567,"longitude_deg":-62.8906,"elevation_ft":400,"country":"Argentina","region":"Córdoba Province","municipality":"Laborde","iata_code":null,"icao_code":null,"gps_code":null},
{"ident":"AR-0235","type":"small_airport","name":"Lago Buenos Aires (Aeroclub Perito Moreno) Airfield","latitude_deg":-46.576307,"longitude_deg":-70.947871,"elevation_ft":1257,"country":"Argentina","region":"Santa Cruz Province","municipality":"Perito Moreno","iata_code":null,"icao_code":null,"gps_code":null},
{"ident":"AR-0236","type":"heliport","name":"Lago Escondido Heliport","latitude_deg":-41.7033,"longitude_deg":-71.6075,"elevation_ft":2722,"country":"Argentina","region":"Río Negro Province","municipality":"Lago Escondido","iata_code":null,"icao_code":null,"gps_code":null},
{"ident":"AR-0237","type":"small_airport","name":"Lago La Esperanza Airport","latitude_deg":-42.217499,"longitude_deg":-71.805003,"elevation_ft":1836,"country":"Argentina","region":"Chubut Province","municipality":"Esquel","iata_code":null,"icao_code":null,"gps_code":null},
{"ident":"AR-0238","type":"small_airport","name":"Lago Nahuel Huapi Airfield","latitude_deg":-41.096709,"longitude_deg":-71.178021,"elevation_ft":2558,"country":"Argentina","region":"Río Negro Province","municipality":"San Carlos de Bariloche","iata_code":null,"icao_code":null,"gps_code":null},
{"ident":"AR-0239","type":"small_airport","name":"Laguna Aeroclub Airport","latitude_deg":-34.40888977050781,"longitude_deg":-59.45833206176758,"elevation_ft":148,"country":"Argentina","region":"Buenos Aires Province","municipality":"San Andres de Giles","iata_code":null,"icao_code":null,"gps_code":null},
{"ident":"AR-0240","type":"small_airport","name":"Laguna De Gomez Airport","latitude_deg":-34.6539,"longitude_deg":-61.01,"elevation_ft":262,"country":"Argentina","region":"Buenos Aires Province","municipality":"Laguna de Gomez","iata_code":null,"icao_code":null,"gps_code":null},
{"ident":"AR-0241","type":"small_airport","name":"Laprida Airport","latitude_deg":-37.520913,"longitude_deg":-60.778141,"elevation_ft":705,"country":"Argentina","region":"Buenos Aires Province","municipality":"Laprida","iata_code":null,"icao_code":null,"gps_code":"SAEK"},
{"ident":"AR-0242","type":"heliport","name":"Las Araucarias Heliport","latitude_deg":-34.3067,"longitude_deg":-59.1703,"elevation_ft":82,"country":"Argentina","region":"Buenos Aires Province","municipality":"Capilla Del Señor","iata_code":null,"icao_code":null,"gps_code":null},
{"ident":"AR-0243","type":"heliport","name":"Las Chacritas Heliport","latitude_deg":-34.405,"longitude_deg":-58.8631,"elevation_ft":64,"country":"Argentina","region":"Buenos Aires Province","municipality":"Villa Rosa","iata_code":null,"icao_code":null,"gps_code":null},
{"ident":"AR-0244","type":"small_airport","name":"Las Cortaderas Airport","latitude_deg":-38.3547,"longitude_deg":-58.1089,"elevation_ft":52,"country":"Argentina","region":"Buenos Aires Province","municipality":"Miramar","iata_code":null,"icao_code":null,"gps_code":null},
{"ident":"AR-0245","type":"small_airport","name":"Las Marias Airport","latitude_deg":-28.1,"longitude_deg":-56.05,"elevation_ft":410,"country":"Argentina","region":"Corrientes Province","municipality":"Gdor. Valentin Virasoro","iata_code":null,"icao_code":null,"gps_code":null},
{"ident":"AR-0246","type":"small_airport","name":"Las Ovejas Airport","latitude_deg":-36.999699,"longitude_deg":-70.741897,"elevation_ft":3936,"country":"Argentina","region":"Neuquén Province","municipality":"Las Ovejas","iata_code":null,"icao_code":null,"gps_code":null},
{"ident":"AR-0247","type":"small_airport","name":"Las Rosas Airport","latitude_deg":-32.4922,"longitude_deg":-61.5806,"elevation_ft":334,"country":"Argentina","region":"Santa Fe Province","municipality":"Las Rosas","iata_code":null,"icao_code":null,"gps_code":null},
{"ident":"AR-0248","type":"small_airport","name":"Las Varillas Airport","latitude_deg":-31.8914,"longitude_deg":-62.7047,"elevation_ft":442,"country":"Argentina","region":"Córdoba Province","municipality":"Las Varillas","iata_code":null,"icao_code":null,"gps_code":null},
{"ident":"AR-0249","type":"small_airport","name":"Lanzillota Airport","latitude_deg":-32.7214012146,"longitude_deg":-68.6342010498,"elevation_ft":1869,"country":"Argentina","region":"Mendoza Province","municipality":"Ciudad de Lavalle","iata_code":null,"icao_code":null,"gps_code":null},
{"ident":"AR-0250","type":"heliport","name":"Legat S.A. Heliport","latitude_deg":-34.3168,"longitude_deg":-58.8166,"elevation_ft":16,"country":"Argentina","region":"Buenos Aires Province","municipality":"Belén De Escobar","iata_code":null,"icao_code":null,"gps_code":null},
{"ident":"AR-0251","type":"small_airport","name":"Leones Airport","latitude_deg":-32.6368,"longitude_deg":-62.3148,"elevation_ft":373,"country":"Argentina","region":"Córdoba Province","municipality":"Leones","iata_code":null,"icao_code":null,"gps_code":null},
{"ident":"AR-0252","type":"small_airport","name":"Luján Airport","latitude_deg":-34.5514,"longitude_deg":-59.0783,"elevation_ft":82,"country":"Argentina","region":"Buenos Aires Province","municipality":"Lujan","iata_code":null,"icao_code":null,"gps_code":"SA8Y"},
{"ident":"AR-0253","type":"small_airport","name":"Lincoln Airport","latitude_deg":-34.8911,"longitude_deg":-61.5306,"elevation_ft":285,"country":"Argentina","region":"Buenos Aires Province","municipality":"Lincoln","iata_code":null,"icao_code":null,"gps_code":null},
{"ident":"AR-0254","type":"small_airport","name":"El Mirador","latitude_deg":-34.538887,"longitude_deg":-59.585278,"elevation_ft":167,"country":"Argentina","region":"Buenos Aires Province","municipality":"San Andres de Giles","iata_code":null,"icao_code":null,"gps_code":null},
{"ident":"AR-0255","type":"small_airport","name":"Loberia Airport","latitude_deg":-38.1906,"longitude_deg":-58.7864,"elevation_ft":265,"country":"Argentina","region":"Buenos Aires Province","municipality":"Loberia","iata_code":null,"icao_code":null,"gps_code":null},
{"ident":"AR-0256","type":"small_airport","name":"Nika Airport","latitude_deg":-38.143874,"longitude_deg":-58.7479,"elevation_ft":262,"country":"Argentina","region":"Buenos Aires Province","municipality":"Lobería","iata_code":null,"icao_code":null,"gps_code":null},
{"ident":"AR-0257","type":"small_airport","name":"Lobos Airport","latitude_deg":-35.210784,"longitude_deg":-59.137149,"elevation_ft":95,"country":"Argentina","region":"Buenos Aires Province","municipality":"Lobos","iata_code":null,"icao_code":null,"gps_code":"SA8S"},
{"ident":"AR-0258","type":"small_airport","name":"Los Cardos Airport","latitude_deg":-32.2719,"longitude_deg":-61.6622,"elevation_ft":341,"country":"Argentina","region":"Santa Fe Province","municipality":"Los Cardos","iata_code":null,"icao_code":null,"gps_code":null},
{"ident":"AR-0259","type":"heliport","name":"Los Fresnos Heliport","latitude_deg":-34.2806,"longitude_deg":-59.12,"elevation_ft":111,"country":"Argentina","region":"Buenos Aires Province","municipality":"Capilla Del Señor","iata_code":null,"icao_code":null,"gps_code":null},
{"ident":"AR-0260","type":"small_airport","name":"Los Perales Airport","latitude_deg":-46.1907997131,"longitude_deg":-69.28029632570001,"elevation_ft":1397,"country":"Argentina","region":"Santa Cruz Province","municipality":"Las Heras","iata_code":null,"icao_code":null,"gps_code":null},
{"ident":"AR-0261","type":"small_airport","name":"Los Tucanes Airport","latitude_deg":-27.0358333588,"longitude_deg":-65.1566696167,"elevation_ft":1194,"country":"Argentina","region":"Tucumán Province","municipality":"Tucuman","iata_code":null,"icao_code":null,"gps_code":null},
{"ident":"AR-0262","type":"small_airport","name":"Macachin Airport","latitude_deg":-37.143716,"longitude_deg":-63.678678,"elevation_ft":459,"country":"Argentina","region":"La Pampa Province","municipality":"Macachin","iata_code":null,"icao_code":null,"gps_code":null},
{"ident":"AR-0263","type":"heliport","name":"Madero Heliport","latitude_deg":-34.6217,"longitude_deg":-58.3447,"elevation_ft":16,"country":"Argentina","region":"Buenos Aires (Autonomous City)","municipality":"Buenos Aires","iata_code":null,"icao_code":null,"gps_code":null},
{"ident":"AR-0264","type":"small_airport","name":"Maipú Airport","latitude_deg":-36.8903,"longitude_deg":-57.8503,"elevation_ft":52,"country":"Argentina","region":"Buenos Aires Province","municipality":"Maipú","iata_code":null,"icao_code":null,"gps_code":null},
{"ident":"AR-0265","type":"heliport","name":"Manuel Afonso Heliport","latitude_deg":-34.815,"longitude_deg":-58.1953,"elevation_ft":36,"country":"Argentina","region":"Buenos Aires Province","municipality":"Hudson","iata_code":null,"icao_code":null,"gps_code":null},
{"ident":"AR-0266","type":"small_airport","name":"Marcos Paz Airfield","latitude_deg":-34.7975,"longitude_deg":-58.8969,"elevation_ft":91,"country":"Argentina","region":"Buenos Aires Province","municipality":"Marcos Paz","iata_code":null,"icao_code":null,"gps_code":"SA9K"},
{"ident":"AR-0267","type":"small_airport","name":"Martín Fierro Airport","latitude_deg":-33.940299987799996,"longitude_deg":-64.3696975708,"elevation_ft":754,"country":"Argentina","region":"Córdoba Province","municipality":"Vicuña Mackena","iata_code":null,"icao_code":null,"gps_code":null},
{"ident":"AR-0268","type":"heliport","name":"Match Point Heliport","latitude_deg":-34.5161,"longitude_deg":-59.1339,"elevation_ft":82,"country":"Argentina","region":"Buenos Aires Province","municipality":"Lujan","iata_code":null,"icao_code":null,"gps_code":null},
{"ident":"AR-0269","type":"small_airport","name":"Meliquina Airport","latitude_deg":-40.33530044555664,"longitude_deg":-71.33920288085938,"elevation_ft":3061,"country":"Argentina","region":"Neuquén Province","municipality":"Meliquina","iata_code":null,"icao_code":null,"gps_code":null},
{"ident":"AR-0270","type":"heliport","name":"Memorial Heliport","latitude_deg":-34.4433,"longitude_deg":-58.8381,"elevation_ft":62,"country":"Argentina","region":"Buenos Aires Province","municipality":"Pilar","iata_code":null,"icao_code":null,"gps_code":null},
{"ident":"AR-0271","type":"small_airport","name":"Mercedes Airport","latitude_deg":-34.638136,"longitude_deg":-59.455395,"elevation_ft":137,"country":"Argentina","region":"Buenos Aires Province","municipality":"Mercedes","iata_code":null,"icao_code":null,"gps_code":"SA9M"},
{"ident":"AR-0272","type":"small_airport","name":"Azcarate Irastorza Airport","latitude_deg":-35.1994,"longitude_deg":-63.6008,"elevation_ft":416,"country":"Argentina","region":"La Pampa Province","municipality":"Intendente Alvear","iata_code":null,"icao_code":null,"gps_code":null},
{"ident":"AR-0273","type":"small_airport","name":"Metán Airport","latitude_deg":-25.5144004822,"longitude_deg":-64.9655990601,"elevation_ft":2765,"country":"Argentina","region":"Salta Province","municipality":"Metan","iata_code":null,"icao_code":null,"gps_code":"SASM"},
{"ident":"AR-0274","type":"small_airport","name":"Mina Clavero Airport","latitude_deg":-31.7331008911,"longitude_deg":-64.98560333249999,"elevation_ft":3181,"country":"Argentina","region":"Córdoba Province","municipality":"Mina Clavero","iata_code":null,"icao_code":null,"gps_code":null},
{"ident":"AR-0275","type":"heliport","name":"Miraflores Country Club Heliport","latitude_deg":-34.4461,"longitude_deg":-58.7342,"elevation_ft":68,"country":"Argentina","region":"Buenos Aires Province","municipality":"Garin","iata_code":null,"icao_code":null,"gps_code":null},
{"ident":"AR-0276","type":"small_airport","name":"Monte Maiz Airport","latitude_deg":-33.2103,"longitude_deg":-62.6297,"elevation_ft":370,"country":"Argentina","region":"Córdoba Province","municipality":"Monte Maiz","iata_code":null,"icao_code":null,"gps_code":null},
{"ident":"AR-0277","type":"closed","name":"Montecarlo Airport","latitude_deg":-26.5439,"longitude_deg":-54.7239,"elevation_ft":787,"country":"Argentina","region":"Misiones Province","municipality":"Montecarlo","iata_code":null,"icao_code":null,"gps_code":null},
{"ident":"AR-0278","type":"small_airport","name":"Moromar Airport","latitude_deg":-38.425775,"longitude_deg":-58.371331,"elevation_ft":49,"country":"Argentina","region":"Buenos Aires Province","municipality":"Quequen","iata_code":null,"icao_code":null,"gps_code":null},
{"ident":"AR-0279","type":"heliport","name":"Morrison Heliport","latitude_deg":-32.0,"longitude_deg":-62.0,"elevation_ft":465,"country":"Argentina","region":"Córdoba Province","municipality":"Morrison","iata_code":null,"icao_code":null,"gps_code":null},
{"ident":"AR-0280","type":"small_airport","name":"Morteros Airport","latitude_deg":-30.6778,"longitude_deg":-62.0267,"elevation_ft":308,"country":"Argentina","region":"Córdoba Province","municipality":"Morteros","iata_code":null,"icao_code":null,"gps_code":null},
{"ident":"AR-0281","type":"small_airport","name":"Navarro Airport","latitude_deg":-35.0236,"longitude_deg":-59.2858,"elevation_ft":98,"country":"Argentina","region":"Buenos Aires Province","municipality":"Navarro","iata_code":null,"icao_code":null,"gps_code":"SA9Z"},
{"ident":"AR-0282","type":"small_airport","name":"Nogoya Airport","latitude_deg":-32.4025,"longitude_deg":-59.7461,"elevation_ft":137,"country":"Argentina","region":"Entre Ríos Province","municipality":"Nogoya","iata_code":null,"icao_code":null,"gps_code":null},
{"ident":"AR-0283","type":"heliport","name":"Norberto Cordeiro Heliport","latitude_deg":-31.4142,"longitude_deg":-64.4969,"elevation_ft":2036,"country":"Argentina","region":"Córdoba Province","municipality":"Villa Carlos Paz","iata_code":null,"icao_code":null,"gps_code":null},
{"ident":"AR-0284","type":"heliport","name":"Sub-Inspector Official Gustavo Soarez de Souza Heliport","latitude_deg":-34.723586,"longitude_deg":-58.5149,"elevation_ft":141,"country":"Argentina","region":"Buenos Aires Province","municipality":"La Matanza","iata_code":null,"icao_code":null,"gps_code":null},
{"ident":"AR-0285","type":"small_airport","name":"Oliva Airport","latitude_deg":-32.060798645,"longitude_deg":-63.5469017029,"elevation_ft":879,"country":"Argentina","region":"Córdoba Province","municipality":"Oliva","iata_code":null,"icao_code":null,"gps_code":null},
{"ident":"AR-0286","type":"heliport","name":"Oreste Berta Heliport","latitude_deg":-31.6269,"longitude_deg":-64.3922,"elevation_ft":1869,"country":"Argentina","region":"Córdoba Province","municipality":"Alta Gracia","iata_code":null,"icao_code":null,"gps_code":null},
{"ident":"AR-0287","type":"heliport","name":"Argentine Naval Prefecture Principal Official Ballestra Heliport","latitude_deg":-34.5772,"longitude_deg":-58.3838,"elevation_ft":19,"country":"Argentina","region":"Buenos Aires (Autonomous City)","municipality":"Buenos Aires","iata_code":null,"icao_code":null,"gps_code":null},
{"ident":"AR-0288","type":"small_airport","name":"Haydee Airport","latitude_deg":-35.669894,"longitude_deg":-61.405525,"elevation_ft":269,"country":"Argentina","region":"Buenos Aires Province","municipality":"Carlos Caceres","iata_code":null,"icao_code":null,"gps_code":null},
{"ident":"AR-0289","type":"small_airport","name":"Parana Aeroclub Airport","latitude_deg":-31.757647,"longitude_deg":-60.373617,"elevation_ft":196,"country":"Argentina","region":"Entre Ríos Province","municipality":"Parana","iata_code":null,"icao_code":null,"gps_code":null},
{"ident":"AR-0290","type":"small_airport","name":"Parana Club De Planeadores Airport","latitude_deg":-31.7314,"longitude_deg":-60.22,"elevation_ft":151,"country":"Argentina","region":"Entre Ríos Province","municipality":"Parana","iata_code":null,"icao_code":null,"gps_code":null},
{"ident":"AR-0291","type":"small_airport","name":"Parque Hermoso Airport","latitude_deg":-38.0287,"longitude_deg":-57.6393,"elevation_ft":196,"country":"Argentina","region":"Buenos Aires Province","municipality":"Mar Del Plata","iata_code":null,"icao_code":null,"gps_code":null},
{"ident":"AR-0292","type":"small_airport","name":"Pedro Luro Airport","latitude_deg":-39.4561,"longitude_deg":-62.6747,"elevation_ft":88,"country":"Argentina","region":"Buenos Aires Province","municipality":"Pedro Luro","iata_code":null,"icao_code":null,"gps_code":null},
{"ident":"AR-0293","type":"small_airport","name":"Pellegrini Airport","latitude_deg":-36.2828,"longitude_deg":-63.1342,"elevation_ft":370,"country":"Argentina","region":"Buenos Aires Province","municipality":"Pellegrini","iata_code":null,"icao_code":null,"gps_code":null},
{"ident":"AR-0294","type":"small_airport","name":"LAD 2198 Juan Jose Angelini","latitude_deg":-34.426945,"longitude_deg":-59.480278,"elevation_ft":164,"country":"Argentina","region":"Buenos Aires Province","municipality":"San Andres de Giles","iata_code":null,"icao_code":null,"gps_code":null},
{"ident":"AR-0295","type":"small_airport","name":"Pilcaniyeu Airport","latitude_deg":-41.12666702270508,"longitude_deg":-70.7138900756836,"elevation_ft":3192,"country":"Argentina","region":"Río Negro Province","municipality":"Pilcaniyeu","iata_code":null,"icao_code":null,"gps_code":null},
{"ident":"AR-0296","type":"small_airport","name":"Pinamar Airport","latitude_deg":-37.0911,"longitude_deg":-56.9783,"elevation_ft":9,"country":"Argentina","region":"Buenos Aires Province","municipality":"Pinamar","iata_code":null,"icao_code":null,"gps_code":"SAB4"},
{"ident":"AR-0297","type":"heliport","name":"Planta Cruz Del Sur Heliport","latitude_deg":-53.3228,"longitude_deg":-68.2658,"elevation_ft":173,"country":"Argentina","region":"Tierra del Fuego Province","municipality":"Bahía San Sebastián","iata_code":null,"icao_code":null,"gps_code":null},
{"ident":"AR-0298","type":"small_airport","name":"Poblet Airport","latitude_deg":-35.0881,"longitude_deg":-57.9492,"elevation_ft":65,"country":"Argentina","region":"Buenos Aires Province","municipality":"Poblet","iata_code":null,"icao_code":null,"gps_code":null},
{"ident":"AR-0299","type":"heliport","name":"Policía Provincia De Córdoba Heliport","latitude_deg":-31.3994,"longitude_deg":-64.1833,"elevation_ft":1293,"country":"Argentina","region":"Córdoba Province","municipality":"Cordoba","iata_code":null,"icao_code":null,"gps_code":null},
{"ident":"AR-0300","type":"heliport","name":"Policlinico San Martin Heliport","latitude_deg":-34.9167,"longitude_deg":-57.9167,"elevation_ft":68,"country":"Argentina","region":"Buenos Aires Province","municipality":"La Plata","iata_code":null,"icao_code":null,"gps_code":null},
{"ident":"AR-0301","type":"heliport","name":"Polisur S.A. Heliport","latitude_deg":-38.7742,"longitude_deg":-62.2939,"elevation_ft":16,"country":"Argentina","region":"Buenos Aires Province","municipality":"Bahía Blanca","iata_code":null,"icao_code":null,"gps_code":null},
{"ident":"AR-0302","type":"closed","name":"Posadas Aeroclub Airport","latitude_deg":-27.4175,"longitude_deg":-55.939724,"elevation_ft":443,"country":"Argentina","region":"Misiones Province","municipality":"Posadas","iata_code":null,"icao_code":null,"gps_code":null},
{"ident":"AR-0303","type":"heliport","name":"Presidencia de la Nación Heliport","latitude_deg":-34.606446,"longitude_deg":-58.368451,"elevation_ft":26,"country":"Argentina","region":"Buenos Aires (Autonomous City)","municipality":"Buenos Aires","iata_code":null,"icao_code":null,"gps_code":null},
{"ident":"AR-0304","type":"small_airport","name":"Puán Airport","latitude_deg":-37.5393981934,"longitude_deg":-62.734199523899996,"elevation_ft":787,"country":"Argentina","region":"Buenos Aires Province","municipality":"Puán","iata_code":null,"icao_code":null,"gps_code":null},
{"ident":"AR-0305","type":"small_airport","name":"Pueblo Esther Airport","latitude_deg":-33.0817,"longitude_deg":-60.5647,"elevation_ft":82,"country":"Argentina","region":"Santa Fe Province","municipality":"Rosario","iata_code":null,"icao_code":null,"gps_code":null},
{"ident":"AR-0306","type":"small_airport","name":"Terminal 6 Airport","latitude_deg":-32.6417,"longitude_deg":-60.7539,"elevation_ft":85,"country":"Argentina","region":"Santa Fe Province","municipality":"Puerto San Martín","iata_code":null,"icao_code":null,"gps_code":null},
{"ident":"AR-0307","type":"small_airport","name":"Pulmari Airport","latitude_deg":-39.100555419921875,"longitude_deg":-70.99888610839844,"elevation_ft":3245,"country":"Argentina","region":"Neuquén Province","municipality":"Pulmari","iata_code":null,"icao_code":null,"gps_code":null},
{"ident":"AR-0308","type":"small_airport","name":"Punta Alta Airport","latitude_deg":-38.8342,"longitude_deg":-62.0869,"elevation_ft":9,"country":"Argentina","region":"Buenos Aires Province","municipality":"Punta Alta","iata_code":null,"icao_code":null,"gps_code":null},
{"ident":"AR-0309","type":"heliport","name":"Raies Heliport","latitude_deg":-31.3461,"longitude_deg":-64.2081,"elevation_ft":1459,"country":"Argentina","region":"Córdoba Province","municipality":"Cordoba","iata_code":null,"icao_code":null,"gps_code":null},
{"ident":"AR-0310","type":"heliport","name":"Rancho De Montaña Heliport","latitude_deg":-40.1525,"longitude_deg":-71.2856,"elevation_ft":3297,"country":"Argentina","region":"Neuquén Province","municipality":"San Martín De Los Andes","iata_code":null,"icao_code":null,"gps_code":null},
{"ident":"AR-0311","type":"small_airport","name":"La Igualdad Airport","latitude_deg":-35.5133,"longitude_deg":-58.3531,"elevation_ft":59,"country":"Argentina","region":"Buenos Aires Province","municipality":"Ranchos","iata_code":null,"icao_code":null,"gps_code":null},
{"ident":"AR-0312","type":"small_airport","name":"Rawson Airport","latitude_deg":-43.2944,"longitude_deg":-65.0644,"elevation_ft":36,"country":"Argentina","region":"Chubut Province","municipality":"Rawson","iata_code":null,"icao_code":null,"gps_code":null},
{"ident":"AR-0313","type":"small_airport","name":"Realicó Airport","latitude_deg":-35.0592002869,"longitude_deg":-64.2110977173,"elevation_ft":541,"country":"Argentina","region":"La Pampa Province","municipality":"Realicó","iata_code":null,"icao_code":null,"gps_code":null},
{"ident":"AR-0314","type":"small_airport","name":"Nueva Valencia Airport","latitude_deg":-27.5864,"longitude_deg":-58.8203,"elevation_ft":186,"country":"Argentina","region":"Corrientes Province","municipality":"Riachuelo","iata_code":null,"icao_code":null,"gps_code":null},
{"ident":"AR-0315","type":"small_airport","name":"Don Jose Airport","latitude_deg":-32.8275,"longitude_deg":-60.7817,"elevation_ft":82,"country":"Argentina","region":"Santa Fe Province","municipality":"Ricardone","iata_code":null,"icao_code":null,"gps_code":null},
{"ident":"AR-0316","type":"small_airport","name":"Rio Chico Airport","latitude_deg":-51.668997,"longitude_deg":-69.266365,"elevation_ft":68,"country":"Argentina","region":"Santa Cruz Province","municipality":"Rio Gallegos","iata_code":null,"icao_code":null,"gps_code":null},
{"ident":"AR-0317","type":"heliport","name":"Estancia Rio Ewan Heliport","latitude_deg":-54.233548,"longitude_deg":-67.213246,"elevation_ft":112,"country":"Argentina","region":"Tierra del Fuego Province","municipality":"Río Grande","iata_code":null,"icao_code":null,"gps_code":null},
{"ident":"AR-0318","type":"small_airport","name":"Rivadavia Airport","latitude_deg":-33.227222,"longitude_deg":-68.474167,"elevation_ft":2162,"country":"Argentina","region":"Mendoza Province","municipality":"Rivadavia","iata_code":null,"icao_code":null,"gps_code":null},
{"ident":"AR-0319","type":"small_airport","name":"Rojas Airport","latitude_deg":-34.215,"longitude_deg":-60.6725,"elevation_ft":19,"country":"Argentina","region":"Buenos Aires Province","municipality":"Rojas","iata_code":null,"icao_code":null,"gps_code":null},
{"ident":"AR-0320","type":"small_airport","name":"Rosario De La Frontera Airport","latitude_deg":-25.828056335399996,"longitude_deg":-64.9680557251,"elevation_ft":2746,"country":"Argentina","region":"Salta Province","municipality":"Rosario de La Frontera","iata_code":null,"icao_code":null,"gps_code":null},
{"ident":"AR-0321","type":"small_airport","name":"Rosario Del Tala Airport","latitude_deg":-32.3289,"longitude_deg":-59.1906,"elevation_ft":177,"country":"Argentina","region":"Entre Ríos Province","municipality":"Rosario Del Tala","iata_code":null,"icao_code":null,"gps_code":null},
{"ident":"AR-0322","type":"small_airport","name":"Rufino Airport","latitude_deg":-34.2831,"longitude_deg":-62.6719,"elevation_ft":387,"country":"Argentina","region":"Santa Fe Province","municipality":"Rufino","iata_code":null,"icao_code":null,"gps_code":null},
{"ident":"AR-0323","type":"small_airport","name":"Salliqueló Airport","latitude_deg":-36.756401062,"longitude_deg":-62.9444007874,"elevation_ft":475,"country":"Argentina","region":"Buenos Aires Province","municipality":"Salliqueló","iata_code":null,"icao_code":null,"gps_code":null},
{"ident":"AR-0324","type":"small_airport","name":"Salto Airport","latitude_deg":-34.306864,"longitude_deg":-60.286489,"elevation_ft":193,"country":"Argentina","region":"Buenos Aires Province","municipality":"Salto","iata_code":null,"icao_code":null,"gps_code":"SA75"},
{"ident":"AR-0325","type":"small_airport","name":"San Benito Airport","latitude_deg":-31.8086,"longitude_deg":-60.4517,"elevation_ft":193,"country":"Argentina","region":"Entre Ríos Province","municipality":"San Benito","iata_code":null,"icao_code":null,"gps_code":null},
{"ident":"AR-0326","type":"small_airport","name":"San Cayetano Heliport","latitude_deg":-38.33388900756836,"longitude_deg":-59.630279541015625,"elevation_ft":328,"country":"Argentina","region":"Buenos Aires Province","municipality":"San Cayetano","iata_code":null,"icao_code":null,"gps_code":null},
{"ident":"AR-0327","type":"small_airport","name":"San Cristobal Airport","latitude_deg":-30.2642,"longitude_deg":-61.2203,"elevation_ft":242,"country":"Argentina","region":"Santa Fe Province","municipality":"San Cristobal","iata_code":null,"icao_code":null,"gps_code":null},
{"ident":"AR-0328","type":"small_airport","name":"San Francisco Airport","latitude_deg":-31.4142,"longitude_deg":-62.1336,"elevation_ft":374,"country":"Argentina","region":"Córdoba Province","municipality":"San Francisco","iata_code":null,"icao_code":null,"gps_code":null},
{"ident":"AR-0329","type":"heliport","name":"San Isidro Labrador Heliport","latitude_deg":-35.0814,"longitude_deg":-63.0822,"elevation_ft":377,"country":"Argentina","region":"Buenos Aires Province","municipality":"General Villegas","iata_code":null,"icao_code":null,"gps_code":null},
{"ident":"AR-0330","type":"heliport","name":"San Joaquín Heliport","latitude_deg":-34.338502,"longitude_deg":-59.721508,"elevation_ft":137,"country":"Argentina","region":"Buenos Aires Province","municipality":"Carmen de Areco","iata_code":null,"icao_code":null,"gps_code":null},
{"ident":"AR-0331","type":"small_airport","name":"San Jorge Airport","latitude_deg":-31.8836,"longitude_deg":-61.8442,"elevation_ft":347,"country":"Argentina","region":"Santa Fe Province","municipality":"San Jorge","iata_code":null,"icao_code":null,"gps_code":null},
{"ident":"AR-0332","type":"small_airport","name":"San Justo Airport","latitude_deg":-30.7642,"longitude_deg":-60.5653,"elevation_ft":180,"country":"Argentina","region":"Santa Fe Province","municipality":"San Justo","iata_code":null,"icao_code":null,"gps_code":null},
{"ident":"AR-0333","type":"small_airport","name":"Aeroclub San Martín","latitude_deg":-33.061883,"longitude_deg":-68.508644,"elevation_ft":2154,"country":"Argentina","region":"Mendoza Province","municipality":"San Martin","iata_code":null,"icao_code":null,"gps_code":"SAMI"},
{"ident":"AR-0334","type":"small_airport","name":"San Miguel del Monte Airport","latitude_deg":-35.4594,"longitude_deg":-58.7636,"elevation_ft":78,"country":"Argentina","region":"Buenos Aires Province","municipality":"San Miguel del Monte","iata_code":null,"icao_code":null,"gps_code":null},
{"ident":"AR-0335","type":"small_airport","name":"Bahía Dorada Airport","latitude_deg":-41.8428,"longitude_deg":-65.0822,"elevation_ft":118,"country":"Argentina","region":"Río Negro Province","municipality":"Sierra Grande","iata_code":null,"icao_code":null,"gps_code":null},
{"ident":"AR-0336","type":"small_airport","name":"San Vicente Airport","latitude_deg":-26.9533004761,"longitude_deg":-54.4878005981,"elevation_ft":1804,"country":"Argentina","region":"Misiones Province","municipality":"Fabiano","iata_code":null,"icao_code":null,"gps_code":null},
{"ident":"AR-0337","type":"heliport","name":"Sanatorio Guemes Heliport","latitude_deg":-34.597,"longitude_deg":-58.4219,"elevation_ft":268,"country":"Argentina","region":"Buenos Aires (Autonomous City)","municipality":"Buenos Aires","iata_code":null,"icao_code":null,"gps_code":null},
{"ident":"AR-0338","type":"small_airport","name":"Santo Tome Airport","latitude_deg":-28.5272216796875,"longitude_deg":-56.10944366455078,"elevation_ft":223,"country":"Argentina","region":"Corrientes Province","municipality":"Santo Tome","iata_code":null,"icao_code":null,"gps_code":null},
{"ident":"AR-0339","type":"heliport","name":"Sarthou S.A. Heliport","latitude_deg":-34.3642,"longitude_deg":-58.5497,"elevation_ft":15,"country":"Argentina","region":"Buenos Aires Province","municipality":"San Fernando","iata_code":null,"icao_code":null,"gps_code":null},
{"ident":"AR-0340","type":"heliport","name":"Saturnino Unzue Heliport","latitude_deg":-35.4244,"longitude_deg":-60.1561,"elevation_ft":164,"country":"Argentina","region":"Buenos Aires Province","municipality":"Mar del Plata","iata_code":null,"icao_code":null,"gps_code":null},
{"ident":"AR-0341","type":"small_airport","name":"Scaro Airport","latitude_deg":-24.4480552673,"longitude_deg":-65.1758346558,"elevation_ft":3228,"country":"Argentina","region":"Jujuy Province","municipality":"Monterrico","iata_code":null,"icao_code":null,"gps_code":null},
{"ident":"AR-0342","type":"small_airport","name":"Villa de María de Río Seco Airport","latitude_deg":-29.9,"longitude_deg":-63.683,"elevation_ft":null,"country":"Argentina","region":"Córdoba Province","municipality":"Villa de María de Río Seco","iata_code":null,"icao_code":null,"gps_code":"SACV"},
{"ident":"AR-0343","type":"heliport","name":"Sol De Agosto Heliport","latitude_deg":-34.5331,"longitude_deg":-58.9714,"elevation_ft":32,"country":"Argentina","region":"Buenos Aires Province","municipality":"Lujan","iata_code":null,"icao_code":null,"gps_code":null},
{"ident":"AR-0344","type":"small_airport","name":"Stroeder Airport","latitude_deg":-40.207635,"longitude_deg":-62.61858,"elevation_ft":91,"country":"Argentina","region":"Buenos Aires Province","municipality":"Stroeder","iata_code":null,"icao_code":null,"gps_code":null},
{"ident":"AR-0345","type":"small_airport","name":"Suboficial Auxiliar Miguel A. Cardone Airport","latitude_deg":-33.9617,"longitude_deg":-61.6325,"elevation_ft":337,"country":"Argentina","region":"Santa Fe Province","municipality":"Villa Cañas","iata_code":null,"icao_code":null,"gps_code":null},
{"ident":"AR-0347","type":"heliport","name":"Swiss Medical Heliport","latitude_deg":-34.5808,"longitude_deg":-58.4294,"elevation_ft":193,"country":"Argentina","region":"Buenos Aires (Autonomous City)","municipality":"Buenos Aires","iata_code":null,"icao_code":null,"gps_code":null},
{"ident":"AR-0348","type":"heliport","name":"Talitas Heliport","latitude_deg":-32.5481,"longitude_deg":-58.2406,"elevation_ft":26,"country":"Argentina","region":"Entre Ríos Province","municipality":"Concepcion Del Uruguay","iata_code":null,"icao_code":null,"gps_code":null},
{"ident":"AR-0349","type":"small_airport","name":"Estancia Tecka Airport","latitude_deg":-43.6122207642,"longitude_deg":-71.0219421387,"elevation_ft":2361,"country":"Argentina","region":"Chubut Province","municipality":"Chubut","iata_code":null,"icao_code":null,"gps_code":null},
{"ident":"AR-0350","type":"heliport","name":"Tecnocopter S.A. Heliport","latitude_deg":-34.4922,"longitude_deg":-58.6061,"elevation_ft":65,"country":"Argentina","region":"Buenos Aires Province","municipality":"Don Torcuato","iata_code":null,"icao_code":null,"gps_code":null},
{"ident":"AR-0351","type":"heliport","name":"Terminal Y.P.F. Heliport","latitude_deg":-34.731923,"longitude_deg":-58.557735,"elevation_ft":32,"country":"Argentina","region":"Buenos Aires Province","municipality":"La Matanza","iata_code":null,"icao_code":null,"gps_code":null},
{"ident":"AR-0352","type":"small_airport","name":"Tilisarao Airport","latitude_deg":-32.75,"longitude_deg":-65.28220367429999,"elevation_ft":2463,"country":"Argentina","region":"San Luis Province","municipality":"Tilisarao","iata_code":null,"icao_code":null,"gps_code":null},
{"ident":"AR-0353","type":"heliport","name":"Timen S.A. Heliport","latitude_deg":-34.4964,"longitude_deg":-58.6078,"elevation_ft":19,"country":"Argentina","region":"Buenos Aires Province","municipality":"Don Torcuato","iata_code":null,"icao_code":null,"gps_code":null},
{"ident":"AR-0354","type":"small_airport","name":"Tolosa Airport","latitude_deg":-34.8747,"longitude_deg":-57.9608,"elevation_ft":18,"country":"Argentina","region":"Buenos Aires Province","municipality":"La Plata","iata_code":null,"icao_code":null,"gps_code":null},
{"ident":"AR-0355","type":"small_airport","name":"Tornquist Airport","latitude_deg":-38.0956,"longitude_deg":-62.250301,"elevation_ft":934,"country":"Argentina","region":"Buenos Aires Province","municipality":"Tornquist","iata_code":null,"icao_code":null,"gps_code":null},
{"ident":"AR-0356","type":"small_airport","name":"Tostado Airport","latitude_deg":-29.2358,"longitude_deg":-61.7886,"elevation_ft":226,"country":"Argentina","region":"Santa Fe Province","municipality":"Tostado","iata_code":null,"icao_code":null,"gps_code":null},
{"ident":"AR-0357","type":"heliport","name":"Transener S.A. Heliport","latitude_deg":-34.175,"longitude_deg":-58.9983,"elevation_ft":32,"country":"Argentina","region":"Buenos Aires Province","municipality":"Campana","iata_code":null,"icao_code":null,"gps_code":null},
{"ident":"AR-0358","type":"heliport","name":"Transener S.A. Heliport","latitude_deg":-34.9136,"longitude_deg":-58.7222,"elevation_ft":65,"country":"Argentina","region":"Buenos Aires Province","municipality":"Ezeiza","iata_code":null,"icao_code":null,"gps_code":null},
{"ident":"AR-0359","type":"heliport","name":"Transener S.A. Heliport","latitude_deg":-32.3694,"longitude_deg":-66.0631,"elevation_ft":1968,"country":"Argentina","region":"San Luis Province","municipality":"Lujan","iata_code":null,"icao_code":null,"gps_code":null},
{"ident":"AR-0360","type":"heliport","name":"Recreo / Transener S.A. Heliport","latitude_deg":-29.2628,"longitude_deg":-65.0582,"elevation_ft":810,"country":"Argentina","region":"Catamarca Province","municipality":"Recreo","iata_code":null,"icao_code":null,"gps_code":null},
{"ident":"AR-0361","type":"heliport","name":"Transener S.A. Heliport","latitude_deg":-38.1472,"longitude_deg":-65.8228,"elevation_ft":751,"country":"Argentina","region":"La Pampa Province","municipality":"Puelches","iata_code":null,"icao_code":null,"gps_code":null},
{"ident":"AR-0362","type":"heliport","name":"Transener S.A. Heliport","latitude_deg":-33.0989,"longitude_deg":-68.5819,"elevation_ft":2220,"country":"Argentina","region":"Mendoza Province","municipality":"Barreales","iata_code":null,"icao_code":null,"gps_code":null},
{"ident":"AR-0363","type":"heliport","name":"Transener S.A. Heliport","latitude_deg":-40.1622,"longitude_deg":-70.3917,"elevation_ft":2302,"country":"Argentina","region":"Neuquén Province","municipality":"Piedra Del Aguila","iata_code":null,"icao_code":null,"gps_code":null},
{"ident":"AR-0364","type":"heliport","name":"Transener S.A. Heliport","latitude_deg":-39.5675,"longitude_deg":-65.6886,"elevation_ft":426,"country":"Argentina","region":"Río Negro Province","municipality":"Choele Choel","iata_code":null,"icao_code":null,"gps_code":null},
{"ident":"AR-0365","type":"heliport","name":"Transener S.A. Heliport","latitude_deg":-29.4606,"longitude_deg":-59.7636,"elevation_ft":190,"country":"Argentina","region":"Santa Fe Province","municipality":"Romang","iata_code":null,"icao_code":null,"gps_code":null},
{"ident":"AR-0366","type":"heliport","name":"Transener S.A. Heliport","latitude_deg":-26.9936,"longitude_deg":-65.1636,"elevation_ft":1239,"country":"Argentina","region":"Tucumán Province","municipality":"El Bracho","iata_code":null,"icao_code":null,"gps_code":null},
{"ident":"AR-0367","type":"heliport","name":"Almafuerte / Transener S.A. Heliport","latitude_deg":-32.203,"longitude_deg":-64.315,"elevation_ft":1640,"country":"Argentina","region":"Córdoba Province","municipality":"Almafuerte","iata_code":null,"icao_code":null,"gps_code":null},
{"ident":"AR-0368","type":"heliport","name":"Montecristo / Transener S.A. Heliport","latitude_deg":-31.3392,"longitude_deg":-63.9138,"elevation_ft":1082,"country":"Argentina","region":"Córdoba Province","municipality":"Monte Cristo","iata_code":null,"icao_code":null,"gps_code":null},
{"ident":"AR-0369","type":"small_airport","name":"Chevron Texaco Airport","latitude_deg":-37.365002,"longitude_deg":-69.300278,"elevation_ft":2896,"country":"Argentina","region":"Neuquén Province","municipality":"El Trapial","iata_code":null,"icao_code":null,"gps_code":"TXO"},
{"ident":"AR-0370","type":"small_airport","name":"Horco Molle Aeroclub Airport","latitude_deg":-26.7961006165,"longitude_deg":-65.3091964722,"elevation_ft":1902,"country":"Argentina","region":"Tucumán Province","municipality":"Tucumán","iata_code":null,"icao_code":null,"gps_code":null},
{"ident":"AR-0371","type":"heliport","name":"Unidad Penitenciaria N° 30 Heliport","latitude_deg":-36.0444,"longitude_deg":-60.0167,"elevation_ft":180,"country":"Argentina","region":"Buenos Aires Province","municipality":"General Alvear","iata_code":null,"icao_code":null,"gps_code":null},
{"ident":"AR-0372","type":"small_airport","name":"Urdinarrain Airport","latitude_deg":-32.6964,"longitude_deg":-58.8992,"elevation_ft":216,"country":"Argentina","region":"Entre Ríos Province","municipality":"Urdinarrain","iata_code":null,"icao_code":null,"gps_code":null},
{"ident":"AR-0373","type":"small_airport","name":"Veinticinco De Mayo Airport","latitude_deg":-35.4464,"longitude_deg":-60.0886,"elevation_ft":164,"country":"Argentina","region":"Buenos Aires Province","municipality":"Veinticinco De Mayo","iata_code":null,"icao_code":null,"gps_code":null},
{"ident":"AR-0374","type":"small_airport","name":"Vera Airport","latitude_deg":-29.4681,"longitude_deg":-60.2261,"elevation_ft":190,"country":"Argentina","region":"Santa Fe Province","municipality":"Vera","iata_code":null,"icao_code":null,"gps_code":null},
{"ident":"AR-0375","type":"small_airport","name":"Veronica Airport","latitude_deg":-35.4,"longitude_deg":-57.3667,"elevation_ft":55,"country":"Argentina","region":"Buenos Aires Province","municipality":"Veronica","iata_code":null,"icao_code":null,"gps_code":null},
{"ident":"AR-0376","type":"small_airport","name":"Victoria Airport","latitude_deg":-32.5844,"longitude_deg":-60.1847,"elevation_ft":75,"country":"Argentina","region":"Entre Ríos Province","municipality":"Victoria","iata_code":null,"icao_code":null,"gps_code":null},
{"ident":"AR-0377","type":"small_airport","name":"Victorica Airport","latitude_deg":-36.237499237099996,"longitude_deg":-65.450553894,"elevation_ft":1020,"country":"Argentina","region":"La Pampa Province","municipality":"Victorica","iata_code":null,"icao_code":null,"gps_code":"SAHV"},
{"ident":"AR-0378","type":"small_airport","name":"Villa Del Rosario Airport","latitude_deg":-31.579313,"longitude_deg":-63.539184,"elevation_ft":830,"country":"Argentina","region":"Córdoba Province","municipality":"Villa Del Rosario","iata_code":null,"icao_code":null,"gps_code":null},
{"ident":"AR-0379","type":"small_airport","name":"Villa General Belgrano Airport","latitude_deg":-31.9652996063,"longitude_deg":-64.5643997192,"elevation_ft":2755,"country":"Argentina","region":"Córdoba Province","municipality":"Villa General Belgrano","iata_code":null,"icao_code":null,"gps_code":null},
{"ident":"AR-0380","type":"small_airport","name":"Villa Ocampo Airport","latitude_deg":-28.4969,"longitude_deg":-59.3256,"elevation_ft":160,"country":"Argentina","region":"Santa Fe Province","municipality":"Villa Ocampo","iata_code":null,"icao_code":null,"gps_code":null},
{"ident":"AR-0381","type":"small_airport","name":"Villa Regina Airport","latitude_deg":-39.073601,"longitude_deg":-67.080002,"elevation_ft":934,"country":"Argentina","region":"Río Negro Province","municipality":"Villa Regina","iata_code":null,"icao_code":null,"gps_code":null},
{"ident":"AR-0382","type":"small_airport","name":"Villa Rumipal Airport","latitude_deg":-32.1850013733,"longitude_deg":-64.4882965088,"elevation_ft":2184,"country":"Argentina","region":"Córdoba Province","municipality":"Villa Rumipal","iata_code":null,"icao_code":null,"gps_code":null},
{"ident":"AR-0383","type":"small_airport","name":"Zarate Airport","latitude_deg":-34.119912,"longitude_deg":-59.083198,"elevation_ft":85,"country":"Argentina","region":"Buenos Aires Province","municipality":"Zarate","iata_code":null,"icao_code":null,"gps_code":"SA2L"},
{"ident":"AR-0384","type":"small_airport","name":"Belingueres Aviación Airport","latitude_deg":-34.2778,"longitude_deg":-60.5044,"elevation_ft":209,"country":"Argentina","region":"Buenos Aires Province","municipality":"Ines Indart","iata_code":null,"icao_code":null,"gps_code":null},
{"ident":"AR-0385","type":"small_airport","name":"Bocca Airport","latitude_deg":-31.8711,"longitude_deg":-61.9511,"elevation_ft":344,"country":"Argentina","region":"Santa Fe Province","municipality":"San Jorge","iata_code":null,"icao_code":null,"gps_code":null},
{"ident":"AR-0386","type":"small_airport","name":"Buena Esperanza Airport","latitude_deg":-30.5306,"longitude_deg":-58.3972,"elevation_ft":246,"country":"Argentina","region":"Entre Ríos Province","municipality":"Los Conquistadores","iata_code":null,"icao_code":null,"gps_code":null},
{"ident":"AR-0387","type":"small_airport","name":"Buenos Aires Airport","latitude_deg":-33.859722,"longitude_deg":-59.468887,"elevation_ft":85,"country":"Argentina","region":"Buenos Aires Province","municipality":"Pueblo Alsina, Baradero","iata_code":null,"icao_code":null,"gps_code":null},
{"ident":"AR-0388","type":"small_airport","name":"Burdisso Airport","latitude_deg":-32.2406,"longitude_deg":-61.7583,"elevation_ft":364,"country":"Argentina","region":"Santa Fe Province","municipality":"El Trebol","iata_code":null,"icao_code":null,"gps_code":null},
{"ident":"AR-0389","type":"closed","name":"Carlos Saqui Airport","latitude_deg":-31.635000228881836,"longitude_deg":-63.86109924316406,"elevation_ft":1066,"country":"Argentina","region":"Córdoba Province","municipality":"Rio Segundo","iata_code":null,"icao_code":null,"gps_code":null},
{"ident":"AR-0390","type":"small_airport","name":"Carmen de Patagones Airport","latitude_deg":-40.7781,"longitude_deg":-62.9803,"elevation_ft":131,"country":"Argentina","region":"Buenos Aires Province","municipality":"Carmen de Patagones","iata_code":"CPG","icao_code":null,"gps_code":"SA3R"},
{"ident":"AR-0391","type":"small_airport","name":"Mar del Plata Gliding Club","latitude_deg":-38.0153,"longitude_deg":-57.6536,"elevation_ft":147,"country":"Argentina","region":"Buenos Aires Province","municipality":"Mar del Plata","iata_code":null,"icao_code":null,"gps_code":null},
{"ident":"AR-0392","type":"small_airport","name":"Colonia Tirolesa Airport","latitude_deg":-31.244722,"longitude_deg":-64.035278,"elevation_ft":1335,"country":"Argentina","region":"Córdoba Province","municipality":"Colonia Tirolesa","iata_code":null,"icao_code":null,"gps_code":null},
{"ident":"AR-0393","type":"small_airport","name":"Comandante Eduardo A. Olivero Airport","latitude_deg":-37.347686,"longitude_deg":-58.9853,"elevation_ft":633,"country":"Argentina","region":"Buenos Aires Province","municipality":"Tandil","iata_code":null,"icao_code":null,"gps_code":"SA1A"},
{"ident":"AR-0394","type":"small_airport","name":"Concepción Airport","latitude_deg":-27.345434,"longitude_deg":-65.617973,"elevation_ft":1200,"country":"Argentina","region":"Tucumán Province","municipality":"Concepción","iata_code":null,"icao_code":null,"gps_code":null},
{"ident":"AR-0395","type":"small_airport","name":"Brandsen Airport","latitude_deg":-35.1828,"longitude_deg":-58.2839,"elevation_ft":52,"country":"Argentina","region":"Buenos Aires Province","municipality":"Brandsen","iata_code":null,"icao_code":null,"gps_code":null},
{"ident":"AR-0396","type":"small_airport","name":"Coronel Moldes Airport","latitude_deg":-33.616669,"longitude_deg":-64.612503,"elevation_ft":1170,"country":"Argentina","region":"Córdoba Province","municipality":"Coronel Moldes","iata_code":null,"icao_code":null,"gps_code":null},
{"ident":"AR-0397","type":"small_airport","name":"Di Giuseppe Airport","latitude_deg":-32.8908,"longitude_deg":-61.1239,"elevation_ft":291,"country":"Argentina","region":"Santa Fe Province","municipality":"Carcarañá","iata_code":null,"icao_code":null,"gps_code":null},
{"ident":"AR-0398","type":"small_airport","name":"Dinaluca S.A. Airport","latitude_deg":-27.3828,"longitude_deg":-57.6442,"elevation_ft":219,"country":"Argentina","region":"Corrientes Province","municipality":"Berón de Astrada","iata_code":null,"icao_code":null,"gps_code":null},
{"ident":"AR-0399","type":"small_airport","name":"General Rodriguez Ildefonso Durana Airport","latitude_deg":-34.6803,"longitude_deg":-59.0358,"elevation_ft":91,"country":"Argentina","region":"Buenos Aires Province","municipality":"General Rodriguez","iata_code":null,"icao_code":null,"gps_code":null},
{"ident":"AR-0400","type":"small_airport","name":"El Girasol Airport","latitude_deg":-33.6661,"longitude_deg":-59.8339,"elevation_ft":91,"country":"Argentina","region":"Buenos Aires Province","municipality":"Gobernador Castro","iata_code":null,"icao_code":null,"gps_code":null},
{"ident":"AR-0401","type":"small_airport","name":"El Gringo Airport","latitude_deg":-27.3086,"longitude_deg":-61.2114,"elevation_ft":301,"country":"Argentina","region":"Chaco Province","municipality":"Charata","iata_code":null,"icao_code":null,"gps_code":null},
{"ident":"AR-0402","type":"small_airport","name":"El Jagüel Airport","latitude_deg":-31.7994,"longitude_deg":-59.0339,"elevation_ft":200,"country":"Argentina","region":"Entre Ríos Province","municipality":"Villaguay","iata_code":null,"icao_code":null,"gps_code":null},
{"ident":"AR-0403","type":"small_airport","name":"El Malagueño Airport","latitude_deg":-31.6994,"longitude_deg":-59.4006,"elevation_ft":180,"country":"Argentina","region":"Entre Ríos Province","municipality":"Villaguay","iata_code":null,"icao_code":null,"gps_code":null},
{"ident":"AR-0404","type":"small_airport","name":"El Pilincho Airport","latitude_deg":-30.3872,"longitude_deg":-57.9683,"elevation_ft":228,"country":"Argentina","region":"Corrientes Province","municipality":"Monte Caseros","iata_code":null,"icao_code":null,"gps_code":null},
{"ident":"AR-0405","type":"small_airport","name":"El Toto Airport","latitude_deg":-31.650278,"longitude_deg":-64.368889,"elevation_ft":540,"country":"Argentina","region":"Córdoba Province","municipality":"Alta Gracia","iata_code":null,"icao_code":null,"gps_code":null},
{"ident":"AR-0406","type":"small_airport","name":"Establecimiento La Adelita Airport","latitude_deg":-31.3925,"longitude_deg":-61.1431,"elevation_ft":164,"country":"Argentina","region":"Santa Fe Province","municipality":"Humboldt","iata_code":null,"icao_code":null,"gps_code":null},
{"ident":"AR-0407","type":"small_airport","name":"Establecimiento La Florencia Airport","latitude_deg":-33.0769,"longitude_deg":-61.3178,"elevation_ft":246,"country":"Argentina","region":"Santa Fe Province","municipality":"Los Molinos","iata_code":null,"icao_code":null,"gps_code":null},
{"ident":"AR-0408","type":"small_airport","name":"Estancia Caridad Airport","latitude_deg":-43.72139,"longitude_deg":-71.24556,"elevation_ft":2427,"country":"Argentina","region":"Chubut Province","municipality":"El Colorado","iata_code":null,"icao_code":null,"gps_code":null},
{"ident":"AR-0409","type":"closed","name":"Estancia El Chañar Airport","latitude_deg":-31.2887,"longitude_deg":-62.4189,"elevation_ft":331,"country":"Argentina","region":"Córdoba Province","municipality":"Colonia Marina","iata_code":null,"icao_code":null,"gps_code":null},